city,lat,lng
Tokyo,35.6897,139.6922
Jakarta,-6.175,106.8275
Delhi,28.61,77.23
Guangzhou,23.13,113.26
Mumbai,19.0761,72.8775
Manila,14.5958,120.9772
Shanghai,31.1667,121.4667
São Paulo,-23.55,-46.6333
Seoul,37.56,126.99
Mexico City,19.4333,-99.1333
Cairo,30.0444,31.2358
New York,40.6943,-73.9249
Dhaka,23.7639,90.3889
Beijing,39.904,116.4075
Kolkāta,22.5675,88.37
Bangkok,13.7525,100.4942
Shenzhen,22.535,114.054
Moscow,55.7558,37.6178
Buenos Aires,-34.5997,-58.3819
Lagos,6.455,3.3841
Istanbul,41.0136,28.955
Karachi,24.86,67.01
Bangalore,12.9789,77.5917
Ho Chi Minh City,10.7756,106.7019
Ōsaka,34.6939,135.5022
Chengdu,30.66,104.0633
Tehran,35.6892,51.3889
Kinshasa,-4.325,15.3222
Rio de Janeiro,-22.9111,-43.2056
Chennai,13.0825,80.275
Xi’an,34.2667,108.9
Lahore,31.5497,74.3436
Chongqing,29.55,106.5069
Los Angeles,34.1141,-118.4068
Baoding,38.8671,115.4845
London,51.5072,-0.1275
Paris,48.8567,2.3522
Linyi,35.1041,118.3502
Dongguan,23.0475,113.7493
Hyderābād,17.385,78.4867
Tianjin,39.1467,117.2056
Lima,-12.06,-77.0375
Wuhan,30.5872,114.2881
Nanyang,32.9987,112.5292
Hangzhou,30.25,120.1675
Foshan,23.0292,113.1056
Nagoya,35.1833,136.9
Taipei,25.0375,121.5625
Tongshan,34.261,117.1859
Luanda,-8.8383,13.2344
Zhoukou,33.625,114.6418
Ganzhou,25.8292,114.9336
Kuala Lumpur,3.1478,101.6953
Heze,35.2333,115.4333
Quanzhou,24.9139,118.5858
Chicago,41.8375,-87.6866
Nanjing,32.0608,118.7789
Jining,35.4,116.5667
Hanoi,21.0283,105.8542
Pune,18.5203,73.8567
Fuyang,32.8986,115.8045
Ahmedabad,23.03,72.58
Johannesburg,-26.2044,28.0456
Bogotá,4.7111,-74.0722
Dar es Salaam,-6.8161,39.2803
Shenyang,41.8025,123.4281
Khartoum,15.5006,32.56
Shangqiu,34.4259,115.6467
Cangzhou,38.3037,116.8452
Hong Kong,22.3,114.2
Shaoyang,27.2418,111.4725
Zhanjiang,21.1967,110.4031
Yancheng,33.3936,120.1339
Hengyang,26.8968,112.5857
Riyadh,24.6333,46.7167
Zhumadian,32.9773,114.0253
Santiago,-33.4372,-70.6506
Xingtai,37.0659,114.4753
Chattogram,22.335,91.8325
Bijie,27.3019,105.2863
Shangrao,28.4419,117.9633
Zunyi,27.705,106.9336
Sūrat,21.1702,72.8311
Surabaya,-7.2458,112.7378
Huanggang,30.45,114.875
Maoming,21.6618,110.9178
Nanchong,30.7991,106.0784
Xinyang,32.1264,114.0672
Madrid,40.4169,-3.7033
Baghdad,33.3153,44.3661
Qujing,25.5102,103.8029
Jieyang,23.5533,116.3649
Singapore,1.3,103.8
Prayagraj,25.4358,81.8464
Liaocheng,36.45,115.9833
Dalian,38.9,121.6
Yulin,22.6293,110.1507
Changde,29.0397,111.6839
Qingdao,36.1167,120.4
Douala,4.05,9.7
Miami,25.784,-80.2101
Nangandao,35.2992,113.8851
Pudong,31.2231,121.5397
Xiangyang,32.0654,112.1531
Dallas,32.7935,-96.7667
Houston,29.786,-95.3885
Zhengzhou,34.7492,113.6605
Lu’an,31.7542,116.5078
Dezhou,37.4513,116.3105
Jinan,36.6667,116.9833
Giza,29.987,31.2118
Zhaotong,27.3328,103.7144
Yichun,27.8041,114.383
Nairobi,-1.2864,36.8172
Guadalajara,20.6767,-103.3475
Philadelphia,40.0077,-75.1339
Ankara,39.93,32.85
Tai’an,36.2001,117.0809
Dazhou,31.2152,107.4947
Langfang,39.5196,116.7006
Yongzhou,26.4515,111.5953
Toronto,43.7417,-79.3733
Suihua,46.6384,126.9808
Saint Petersburg,59.95,30.3167
Qiqihar,47.3398,123.9512
Suzhou,33.6333,116.9683
Monterrey,25.6667,-100.3
Belo Horizonte,-19.9167,-43.9333
Weinan,34.4996,109.4684
Rangoon,16.795,96.16
Zhangzhou,24.5093,117.6612
Yuncheng,35.0304,110.998
Xianyang,34.35,108.7167
Guilin,25.2819,110.2864
Atlanta,33.7628,-84.422
Taizhou,32.4831,119.9
Kāshān,33.9833,51.4333
Bozhou,33.8626,115.7742
Abidjan,5.3167,-4.0333
Suqian,33.9331,118.2831
Huaihua,27.5494,109.9592
Ji’an,27.1172,114.9793
Xiaoganzhan,30.9273,113.911
Pingdingshan,33.735,113.2999
Jiujiang,29.7048,116.0021
Alexandria,31.1975,29.8925
Mianyang,31.4669,104.7385
Sydney,-33.8678,151.21
Huanglongsi,34.795,114.345
Washington,38.9047,-77.0163
Barcelona,41.3825,2.1769
Changsha,28.1987,112.9709
Chenzhou,25.7989,113.0267
Anqing,30.5,117.0333
Jiangmen,22.5833,113.0833
Xinpu,34.5906,119.1801
Yibin,28.7596,104.64
Yangzhou,32.3912,119.4363
Melbourne,-37.8142,144.9631
Berlin,52.52,13.405
Hengshui,37.7348,115.686
Timbío,2.3445,-76.6839
Kunming,25.0433,102.7061
Yiyang,28.5833,112.3333
Guigang,23.0961,109.6092
Changchun,43.9,125.2
Jiangguanchi,34.0244,113.8201
Casablanca,33.5333,-7.5833
Meizhou,24.2998,116.1191
Zhangjiakou,40.8108,114.8811
Chifeng,42.2663,118.9223
Ürümqi,43.8225,87.6125
Suzhou,31.3,120.6194
İzmir,38.42,27.14
Linfen,36.0812,111.5087
Shantou,23.3735,116.6941
Kabul,34.5253,69.1783
Mogadishu,2.0392,45.3419
Luzhou,28.8918,105.4409
Hefei,31.8639,117.2808
Boston,42.3188,-71.0852
Liuzhou,24.3264,109.4281
Zhaoqing,23.05,112.4667
Xiaoxita,30.7083,111.2803
Shijiazhuang,38.0422,114.5086
Ningbo,29.875,121.5492
Fuzhou,27.9814,116.3577
Phoenix,33.5722,-112.0892
Zhuzhou,27.8407,113.1469
Amman,31.9497,35.9328
Chuzhou,32.3062,118.3115
Jeddah,21.5433,39.1728
Qingyuan,23.6842,113.0507
Loudi,27.7378,111.9974
Binzhou,37.3806,118.0125
Deyang,31.1289,104.395
Taiyuan,37.8733,112.5425
Kano,12.0,8.5167
Wuhu,31.334,118.3622
Nanning,22.8192,108.315
Harbin,45.75,126.6333
Abuja,9.0667,7.4833
Yokohama,35.4442,139.6381
Baojishi,34.3609,107.1751
Zaozhuang,34.8667,117.55
Xiamen,24.4797,118.0819
Neijiang,29.5872,105.0635
Fuzhou,26.0769,119.2917
Baicheng,23.901,106.6194
Anshan,41.1066,122.9895
Medan,3.5894,98.6739
Yulinshi,38.2655,109.7388
Wenzhou,27.9991,120.6561
Changzhou,31.8122,119.9692
Puyang,35.7639,115.03
Jiaozuo,35.229,113.2304
Nanchang,28.6842,115.8872
Ibadan,7.3964,3.9167
Hechi,24.6928,108.085
Detroit,42.3834,-83.1024
Montréal,45.5089,-73.5617
Busan,35.18,129.075
Hohhot,40.8151,111.6629
Seattle,47.6211,-122.3244
Algiers,36.7539,3.0589
Hanzhong,33.0794,107.026
Tangshan,39.6292,118.1742
Shiyan,32.6351,110.7755
Lucknow,26.85,80.95
Siping,43.1715,124.3644
Mashhad,36.3,59.6
Boankra,6.6944,-1.4028
Changzhi,36.1953,113.097
Dubai,25.2631,55.2972
Qinzhou,21.95,108.6167
Guiyang,26.5794,106.7078
Bengbu,32.9354,117.3531
San Francisco,37.7558,-122.4449
Bazhou,31.8576,106.7559
Qincheng,34.5809,105.7311
Suining,30.5098,105.5737
Wuxi,31.5667,120.2833
Leshan,29.5854,103.7575
Putian,25.4394,119.0103
Zhenjiang,32.2109,119.4551
Faisalabad,31.4167,73.0911
Guang’an,30.4673,106.6336
Tongren,27.7233,109.1885
Santa Cruz,-17.7892,-63.1975
Qinhuangdao,39.9398,119.5881
Tongliao,43.6172,122.264
Jinzhou,41.1144,121.1292
Heyuan,23.7503,114.6923
San Diego,32.8313,-117.1222
Jaipur,26.9,75.8
Xinzhou,38.4178,112.7233
Lanzhou,36.0617,103.8318
Wuzhou,23.4833,111.3167
Athens,37.9842,23.7281
Addis Ababa,9.03,38.74
Chaoyang,41.5757,120.4486
Brasília,-15.7939,-47.8828
Taichung,24.1439,120.6794
Kuwait City,29.3697,47.9783
Budapest,47.4925,19.0514
Shaoguan,24.8011,113.5927
Shanwei,22.7664,115.3331
Quezon City,14.63,121.03
Rizhao,35.4164,119.4331
Kyiv,50.45,30.5233
Sanaa,15.3483,44.2064
Meishan,30.0575,103.8381
Incheon,37.4833,126.6333
Guatemala City,14.6099,-90.5252
Birmingham,52.48,-1.9025
Zhongshan,22.5333,113.35
Ningde,26.6617,119.5228
Weihai,37.5,122.1
Daqing,46.5979,125.008
Bursa,40.1833,29.05
Salvador,-12.9747,-38.4767
Rome,41.8931,12.4828
Haikou,20.02,110.32
La Paz,-16.5,-68.15
Xiangtan,27.8431,112.9228
Pyongyang,39.0194,125.7381
Minneapolis,44.9635,-93.2678
Omdurman,15.65,32.4833
Malang,-7.98,112.62
Mudanjiang,44.5861,129.5997
Stuttgart,48.7775,9.18
Brooklyn,40.6501,-73.9496
Kaohsiung,22.615,120.2975
Guayaquil,-2.19,-79.8875
Lisbon,38.7253,-9.15
Longyan,25.0881,117.0244
Tieling,42.2841,123.8365
Manchester,53.4794,-2.2453
Baotou,40.6562,109.8345
Handan,36.6116,114.4894
Cawnpore,26.4499,80.3319
Dingxi,35.5806,104.6263
Nanping,26.6448,118.1728
Tampa,27.9945,-82.4447
Zigong,29.3498,104.7645
Maracaibo,10.6333,-71.6333
Chaozhou,23.67,116.63
Mbuji-Mayi,-6.15,23.6
Denver,39.762,-104.8758
Gulou,26.0865,119.298
Weifang,36.7167,119.1
Huai’an,33.5058,119.1392
Zibo,36.7831,118.0497
Ankang,32.6877,109.0235
Baoshan,25.1211,99.169
Antananarivo,-18.9333,47.5167
Huludao,40.7094,120.8378
Munich,48.1375,11.575
Yanjiang,30.1256,104.6397
Santo Domingo,18.4764,-69.8933
Sanming,26.2658,117.6302
Tashkent,41.3111,69.2797
Longba,33.535,105.349
Yangjiang,21.8556,111.9627
Jiamusi,46.8081,130.3653
Luohe,33.583,114.0109
Lincang,23.8864,100.0871
Medellín,6.2308,-75.5906
Xuanzhou,30.9475,118.7518
Yunfu,22.9242,112.0353
Shaoxing,30.0,120.5833
Yantai,37.3997,121.2664
Huizhou,23.1115,114.4152
Lishui,28.45,119.9167
Mirzāpur,25.146,82.569
Hamburg,53.55,10.0
Guangyuan,32.4353,105.8398
Cali,3.4206,-76.5222
Lusaka,-15.4167,28.2833
Huangshi,30.2018,115.0326
Xining,36.6239,101.7787
Ouagadougou,12.3686,-1.5275
Daegu,35.8717,128.6017
Fortaleza,-3.7275,-38.5275
Yaoundé,3.8667,11.5167
Jilin,43.8519,126.5481
Dandong,40.1167,124.3833
Zhuhai,22.2769,113.5678
Lianshan,40.7523,120.828
Yingkou,40.6653,122.2297
Antalya,36.8874,30.7075
Nāgpur,21.1497,79.0806
Queens,40.7498,-73.7976
Accra,5.55,-0.2
Bekasi,-6.2349,106.9923
Ghāziābād,28.67,77.42
Yuxi,24.3495,102.5432
Luoyang,34.6587,112.4245
Brisbane,-27.4678,153.0281
Anshun,26.2456,105.934
Depok,-6.394,106.8225
Shangzhou,33.868,109.9244
Huainan,32.4831,117.0164
Colombo,6.9344,79.8428
Kuaidamao,41.7302,125.9471
Baku,40.3667,49.8352
Fukuoka,33.5833,130.4
Yan’an,36.5952,109.4863
Jincheng,35.4906,112.8483
Vancouver,49.25,-123.1
Nantong,31.9829,120.8873
Tangerang,-6.1783,106.6319
Caracas,10.4806,-66.9036
Sanmenxia,34.7736,111.195
Laibin,23.7333,109.2333
Konya,37.8667,32.4833
Manaus,-3.1,-60.0167
Eşfahān,32.6447,51.6675
Qinbaling,35.7278,107.64
Baltimore,39.3051,-76.6144
Ma’anshan,31.6858,118.5101
Shengli,37.45,118.4667
Gaoping,30.7824,106.1281
Taizhou,28.6583,121.4221
Harare,-17.8292,31.0522
Kowloon,22.3167,114.1833
Las Vegas,36.2333,-115.2654
Havana,23.1367,-82.3589
Perth,-31.9559,115.8606
Phnom Penh,11.5694,104.9211
Puning,23.2993,116.1586
Huaibei,33.9562,116.789
Qingyang,24.8141,118.5792
Haiphong,20.8651,106.6838
Chongzuo,22.4167,107.3667
Rawalpindi,33.6,73.0333
Yushan,31.3867,120.9766
St. Louis,38.6359,-90.2451
Kumasi,6.6667,-1.6167
Vadodara,22.3,73.2
Hezhou,24.4164,111.5478
Pingliang,35.5412,106.6819
Portland,45.5371,-122.65
Vishākhapatnam,17.7042,83.2978
Gujranwala,32.1567,74.19
Baicheng,45.6148,122.832
Gaziantep,37.0628,37.3792
Fushun,41.8708,123.8917
Riverside,33.9381,-117.3949
Bamako,12.6458,-7.9922
Quito,-0.22,-78.5125
Minsk,53.9,27.5667
Tijuana,32.525,-117.0333
Bamenda,5.9614,10.1517
Boosaaso,11.2886,49.1819
Indore,22.7167,75.8472
Şanlıurfa,37.1583,38.7917
Vienna,48.2083,16.3725
Karaj,35.8272,50.9489
Kananga,-5.897,22.4488
Peshawar,34.0144,71.5675
Sapporo,43.0667,141.35
Ecatepec,19.6097,-99.06
Pingxiang,27.6333,113.85
Orlando,28.4773,-81.337
Aleppo,36.2,37.16
Sacramento,38.5677,-121.4685
Almaty,43.2775,76.8958
San Juan,18.3985,-66.061
San Antonio,29.4632,-98.5238
Yinchuan,38.4795,106.2254
Thāne,19.1972,72.9722
Santos,-23.9369,-46.325
Blantyre,-15.7861,35.0058
Bucharest,44.4325,26.1039
Curitiba,-25.4297,-49.2711
Multan,30.1978,71.4697
Tainan,22.9833,120.1833
Xiping,40.082,113.2981
Port Harcourt,4.8242,7.0336
Warsaw,52.23,21.0111
Jixi,45.2937,130.965
Saidu Sharif,34.75,72.3572
Liaoyang,41.2643,123.1772
Beihai,21.4667,109.1
Meru,0.05,37.65
Brazzaville,-4.2694,15.2714
Fuxin,42.0127,121.6486
Wuwei,37.9278,102.6329
Mersin,36.8,34.6333
Bhopāl,23.25,77.4167
Lubumbashi,-11.6647,27.4794
Denpasar,-8.65,115.2167
Davao,7.0667,125.6
Shuyangzha,34.1299,118.7734
Adana,37.0,35.3213
Damascus,33.5131,36.2919
Brussels,50.8467,4.3525
Hyderabad City,25.3792,68.3683
Diyarbakır,37.91,40.24
San Jose,37.3012,-121.848
Chinchvad,18.6186,73.8037
Montevideo,-34.8836,-56.1819
Pittsburgh,40.4397,-79.9763
Shuozhou,39.3408,112.4292
Cincinnati,39.1413,-84.506
Benxi,41.292,123.761
Baiyin,36.5448,104.1766
Mosul,36.34,43.13
Manhattan,40.7834,-73.9662
Caloocan City,14.65,120.97
Kampala,0.3136,32.5811
Patna,25.6,85.1
Tegucigalpa,14.1,-87.2167
Cleveland,41.4764,-81.6805
Sanzhou,30.82,108.4
Changshu,31.65,120.7333
Mecca,21.4225,39.8233
Heihe,50.2458,127.4886
Jingdezhen,29.2942,117.2036
Conakry,9.5092,-13.7122
Recife,-8.05,-34.9
Indianapolis,39.7771,-86.1458
Austin,30.3005,-97.7522
Sangereng,-6.2889,106.7181
Kansas City,39.1238,-94.5541
Zhongli,24.965,121.2168
Novosibirsk,55.0333,82.9167
Bilāspur,22.09,82.15
Semarang,-6.9667,110.4167
Ludhiāna,30.91,75.85
Nārāyanganj,23.62,90.5
Stockholm,59.3294,18.0686
Chengtangcun,35.0833,117.15
Āgra,27.18,78.02
Balandougou,13.3558,-9.5517
Agwār,27.18,78.02
León de los Aldama,21.1167,-101.6833
Yopougon,5.3167,-4.0667
Puebla,19.0333,-98.1833
Madurai,9.9252,78.1198
Hebi,35.7497,114.2887
Córdoba,-31.4167,-64.1833
Shīrāz,29.61,52.5425
Jamshedpur,22.7925,86.1842
Tabrīz,38.0814,46.3006
Huzhou,30.8925,120.0875
Columbus,39.9862,-82.9855
Sofia,42.7,23.33
Kawasaki,35.5167,139.7
San José,9.9325,-84.08
Aba,5.1167,7.3667
Palembang,-2.9861,104.7556
Zhangjiajie,29.1255,110.4844
Kōbe,34.69,135.1956
Jiaxing,30.7522,120.75
Charlotte,35.2083,-80.8303
Guiping,23.4,110.0833
Lianjiang,21.6146,110.2794
Ximeicun,24.9633,118.3811
Jianguang,28.1958,115.7833
Yucheng,29.9888,103.0007
Panama City,8.9833,-79.5167
Xushan,30.1697,121.2665
Belém,-1.4558,-48.5039
Virginia Beach,36.7335,-76.0435
Leizhou,20.9147,110.0806
Gwangju,35.1653,126.8486
Nāsik,20.0,73.78
Porto Alegre,-30.0331,-51.23
Valencia,10.1667,-68.0
Onitsha,6.1667,6.7833
Abu Dhabi,24.4667,54.3667
Daejeon,36.351,127.385
Zapopan,20.7167,-103.4
Bronx,40.8501,-73.8662
Yekaterinburg,56.8356,60.6128
Huazhou,32.6832,112.079
Kyōto,35.0117,135.7683
Jinhua,29.1046,119.6494
Amsterdam,52.3728,4.8936
Shuangyashan,46.6388,131.1545
Pizhou,34.3422,118.0097
El Kelaa des Srarhna,32.0481,-7.4083
Dakar,14.6928,-17.4467
Kharkiv,49.9925,36.2311
Yangshe,31.8775,120.5512
Guyuan,36.008,106.2782
Rui’an,27.778,120.6526
Khulna,22.8167,89.55
Muscat,23.6139,58.5922
Wenling,28.3797,121.3718
Gaozhou,21.9135,110.8481
Farīdābād,28.4167,77.3
Chizhou,30.6583,117.4849
Tel Aviv-Yafo,32.08,34.78
Ulaanbaatar,47.9203,106.9172
Goiânia,-16.6667,-49.25
Fuqing,25.7232,119.3735
Kayseri,38.7225,35.4875
Wuzhong,37.9874,106.1919
Belgrade,44.82,20.46
Pingdu,36.7833,119.9556
Milan,45.4669,9.19
Aurangābād,19.88,75.32
Copenhagen,55.6761,12.5683
Yangquan,37.8576,113.5762
Yutan,28.3147,112.554
Huangshan,29.7132,118.3151
Auckland,-36.8406,174.74
Makassar,-5.1619,119.4362
Santiago,19.4572,-70.6889
Milwaukee,43.0642,-87.9675
Rājkot,22.3,70.7833
Prague,50.0875,14.4214
Samsun,41.2903,36.3336
Liangshi,27.2578,111.7351
Barranquilla,10.9833,-74.8019
Saitama,35.8614,139.6456
Guarulhos,-23.4628,-46.5328
Al Başrah,30.515,47.81
Mandalay,21.9831,96.0844
Juárez,31.7386,-106.487
Xintai,35.91,117.78
Wusong,30.9333,117.7667
Meerut,28.98,77.71
Yushu,44.8249,126.5451
Rongcheng,26.2312,104.0966
Huazhou,21.654,110.6294
Adelaide,-34.9275,138.6
Baishan,41.9377,126.4179
Dayan,26.8808,100.2208
Haicheng,40.8523,122.7474
Tripoli,32.8872,13.1914
Jiangyin,31.9087,120.2653
Yicheng,31.3697,119.8239
Huaiyin,33.5819,119.028
Porto,41.1621,-8.622
Cacuaco,-8.8053,13.2444
Soweto,-26.2678,27.8585
Rosario,-32.9575,-60.6394
Canagatan,18.0,121.8
Helsinki,60.1708,24.9375
Jabalpur,23.1667,79.9333
Providence,41.823,-71.4187
Rucheng,32.3852,120.5634
Nizhniy Novgorod,56.3269,44.0075
Ahvāz,31.3203,48.6692
Jepara,-6.5333,110.6667
Shaoyang,32.9387,119.8404
Comayagüela,14.0981,-87.2097
Laiwu,36.1833,117.6667
Sharjah,25.3575,55.3908
Kalamboli,19.2333,73.1333
Jingling,30.6667,113.1667
Kazan,55.7964,49.1089
Suwon,37.2667,127.0167
Yongcheng,33.9317,116.4459
Sumedang,-6.84,107.9208
Calgary,51.05,-114.0667
Cần Thơ,10.0333,105.7833
Yiwu,29.3081,120.0698
Bagam,1.0833,104.0333
Beidao,34.602,105.918
Vasai,19.47,72.8
Xiangshui,26.5964,104.8314
Jacksonville,30.3322,-81.6749
Akçaabat,41.0167,39.55
Campinas,-22.9058,-47.0608
Dadukou,26.5849,101.7149
Mombasa,-4.05,39.6667
Lingcheng,22.7,110.35
Najafgarh,28.6092,76.9798
Vila Velha,3.2167,-51.2167
Gāzipura,23.9889,90.375
Chelyabinsk,55.15,61.4
Vārānasi,25.3189,83.0128
Xinyu,27.795,114.9242
Qom,34.64,50.8764
Hargeysa,9.5631,44.0675
Zhangye,38.9355,100.4553
Hiroshima,34.3914,132.4519
Maiduguri,11.8333,13.15
Chiang Mai,18.7953,98.9986
Doha,25.2867,51.5333
Maputo,-25.9667,32.5833
Mbandaka,0.0478,18.2558
Pikine,14.75,-17.4
Medina,24.47,39.61
Srīnagar,34.09,74.79
Omsk,54.9667,73.3833
Dublin,53.35,-6.2603
Liaoyuan,42.8976,125.1381
Cilacap,-7.7167,109.017
Yingtan,28.2333,117.0
Bandar Lampung,-5.45,105.2667
Samara,53.2028,50.1408
Guankou,28.1417,113.625
Ulsan,35.55,129.3167
Dhanbād,23.7998,86.4305
Dingzhou,38.5158,114.9845
Lianyuan,27.6961,111.6659
Rongcheng,29.8239,112.9019
Kaiyuan,36.0656,113.8153
Nay Pyi Taw,19.7475,96.115
Zhuji,29.7169,120.2314
Kigali,-1.9536,30.0606
Bukavu,-2.5,28.8667
Leiyang,26.4179,112.8457
Bafoussam,5.4667,10.4167
Yichun,47.7235,128.8893
Benin City,6.3333,5.6222
Rostov,47.2333,39.7
Xiantao,30.3833,113.4
Amritsar,31.64,74.86
Callao,-12.0333,-77.1333
Salt Lake City,40.7776,-111.9311
Alīgarh,27.88,78.08
Shagamu,6.8333,3.65
Yingchuan,34.1511,113.4733
Ciudad Nezahualcóyotl,19.4081,-99.0186
Tbilisi,41.7225,44.7925
Guwāhāti,26.1722,91.7458
Ufa,54.7261,55.9475
Fès,34.0433,-5.0033
São Luís,-2.5283,-44.3044
Biên Hòa,10.95,106.8167
Sevilla,37.24,-5.99
N’Djamena,12.11,15.05
Mexicali,32.6633,-115.4678
Nezahualcóyotl,19.4006,-99.0148
Ikare,7.5167,5.75
Nashville,36.1715,-86.7842
Tamale,9.4075,-0.8533
Xibeijie,39.737,98.5049
Yuyao,30.0372,121.1546
Hāora,22.58,88.3294
Hanchuan,30.652,113.8274
Gongzhuling,43.5036,124.8088
Krasnoyarsk,56.0089,92.8719
Cologne,50.9364,6.9528
Bujumbura,-3.3833,29.3667
Bishkek,42.8747,74.6122
Zhufeng,36.0,119.4167
São Gonçalo,-22.8269,-43.0539
Yerevan,40.1814,44.5144
Ezhou,30.3972,114.8842
Nur-Sultan,51.1472,71.4222
Tongjin,37.2333,127.2
Nouakchott,18.0858,-15.9785
Xiashi,30.5333,120.6833
Rānchi,23.36,85.33
Taixing,32.1724,120.0142
Vereeniging,-26.6736,27.9319
Gwalior,26.2215,78.178
Zhongwei,37.5139,105.1884
Goyang,37.65,126.8
Oslo,59.9133,10.7389
Vijayavāda,16.5193,80.6305
Chandīgarh,30.75,76.78
Edmonton,53.5344,-113.4903
Sendai,38.2682,140.8694
Raleigh,35.8324,-78.6429
Mizhou,35.99,119.3801
Tunis,36.8064,10.1817
Xishan,27.6609,113.4946
Barquisimeto,10.0678,-69.3467
Hegang,47.3139,130.2775
Voronezh,51.6717,39.2106
Perm,58.0139,56.2489
Changwon,35.2708,128.6631
Fangchenggang,21.6,108.3
Shouguang,36.8833,118.7333
Bogor,-6.5966,106.7972
Cartagena,10.4,-75.5
Matola,-25.9667,32.4667
Jodhpur,26.28,73.02
Memphis,35.1087,-89.9663
Ogbomoso,8.1333,4.25
Rangapukur,25.56,89.25
Managua,12.1544,-86.2738
Sanya,18.2533,109.5036
Shymkent,42.3167,69.5958
Wutong,30.6326,120.5474
Niamey,13.515,2.1175
Shubrā al Khaymah,30.1286,31.2422
Linhai,28.8523,121.1409
Denizli,37.7667,29.0833
Maceió,-9.6658,-35.735
Monrovia,6.3133,-10.8014
Wafangdian,39.6271,121.9972
Zhongxiang,31.169,112.5853
Louisville,38.1663,-85.6485
Odesa,46.4775,30.7326
Thủ Đức,10.8266,106.7609
Volgograd,48.7086,44.5147
Islamabad,33.6931,73.0639
Port-au-Prince,18.5333,-72.3333
Xinyi,22.3559,110.9369
Raipur,21.25,81.63
Arequipa,-16.4,-71.5333
Richmond,37.5295,-77.4756
Zaoyang,32.1287,112.7581
Buffalo,42.9018,-78.8487
Shuizhai,33.4433,114.8994
Xingyi,25.091,104.9011
Kota,25.18,75.83
Quetta,30.1833,67.0
Kathmandu,27.7172,85.324
Ottawa,45.4247,-75.695
Lilongwe,-13.9833,33.7833
Asmara,15.3228,38.925
Freetown,8.4844,-13.2344
Vientiane,17.9667,102.6
Jerusalem,31.7784,35.2066
Riga,56.9489,24.1064
Bangui,4.3733,18.5628
Dushanbe,38.5367,68.78
Lomé,6.1319,1.2228
Ashgabat,37.95,58.3833
Zagreb,45.8167,15.9833
Libreville,0.3903,9.4542
Cotonou,6.3667,2.4333
Pretoria,-25.7461,28.1881
Vilnius,54.6872,25.28
Winnipeg,49.8844,-97.1464
Quebec City,46.8139,-71.2081
Chisinau,47.0228,28.8353
Port Moresby,-9.4789,147.1494
Skopje,41.9961,21.4317
Djibouti,11.5883,43.145
Gaza,31.5069,34.456
Kingston,17.9714,-76.7931
Rabat,34.0209,-6.8416
San Salvador,13.6989,-89.1914
The Hague,52.08,4.31
Asunción,-25.3,-57.6333
Juba,4.85,31.6
Maseru,-29.31,27.48
Bissau,11.85,-15.5667
Valletta,35.8983,14.5125
Bratislava,48.1439,17.1097
Kitchener,43.4186,-80.4728
Manama,26.225,50.5775
Tallinn,59.4372,24.7453
Beirut,33.8869,35.5131
Cape Town,-33.9253,18.4239
Tirana,41.3289,19.8178
Sarajevo,43.8564,18.4131
Wellington,-41.2889,174.7772
Banjul,13.4531,-16.5775
Halifax,44.6475,-63.5906
Canberra,-35.2931,149.1269
Yamoussoukro,6.8161,-5.2742
Victoria,48.4283,-123.3647
Nicosia,35.1725,33.365
Windhoek,-22.57,17.0836
Saint-Denis,-20.8789,55.4481
Porto-Novo,6.4972,2.605
Sucre,-19.0475,-65.26
Ljubljana,46.0514,14.5061
Nassau,25.0781,-77.3386
Bloemfontein,-29.1167,26.2167
Fort-de-France,14.6,-61.0667
New Delhi,28.6139,77.209
Gaborone,-24.6581,25.9122
Paramaribo,5.8522,-55.2039
Dili,-8.5536,125.5783
Dodoma,-6.1731,35.7419
Georgetown,6.8058,-58.1508
Gibraltar,36.1333,-5.35
Malabo,3.75,8.7833
Suva,-18.1416,178.4419
Nouméa,-22.2758,166.458
Pristina,42.6633,21.1622
Male,4.1753,73.5089
Port Louis,-20.1644,57.5042
Podgorica,42.4413,19.2629
Willemstad,12.108,-68.935
Bern,46.9481,7.4475
Gitega,-3.4283,29.925
Reykjavík,64.1467,-21.94
Luxembourg,49.6117,6.1319
Papeete,-17.5334,-149.5667
Praia,14.918,-23.509
Sri Jayewardenepura Kotte,6.9108,79.8878
Bridgetown,13.0975,-59.6167
Moroni,-11.699,43.256
Thimphu,27.4722,89.6361
Mbabane,-26.3208,31.1617
Honiara,-9.4319,159.9556
Port of Spain,10.6667,-61.5167
Castries,14.0167,-60.9833
Putrajaya,2.93,101.69
Cayenne,4.933,-52.33
São Tomé,0.3361,6.7306
Port-Vila,-17.7333,168.3167
Bandar Seri Begawan,4.8903,114.9422
Monaco,43.7333,7.4167
Apia,-13.8333,-171.75
Tarawa,1.3382,173.0176
Oranjestad,12.5186,-70.0358
Saint Helier,49.1858,-2.11
Mamoudzou,-12.7794,45.2272
Majuro,7.0833,171.3833
Douglas,54.145,-4.482
George Town,19.2866,-81.3744
Victoria,-4.6167,55.45
Kingstown,13.1578,-61.225
Andorra la Vella,42.5,1.5
Saint John’s,17.1167,-61.85
Nuku‘alofa,-21.1333,-175.2
Nuuk,64.1814,-51.6942
Belmopan,17.2514,-88.7669
Roseau,15.3014,-61.3883
Basseterre,17.3,-62.7333
Tórshavn,62.0,-6.7833
Road Town,18.4167,-64.6167
Pago Pago,-14.274,-170.7046
Grand Turk,21.4664,-71.136
Marigot,18.0706,-63.0847
Palikir,6.9178,158.185
Funafuti,-8.5167,179.2
Vaduz,47.141,9.521
Lobamba,-26.4465,31.2064
Avarua,-21.207,-159.771
Saint George’s,12.05,-61.75
San Marino,43.9346,12.4473
Tifariti,26.158,-10.567
Philipsburg,18.0237,-63.0458
Capitol Hill,15.2137,145.7546
Stanley,-51.7,-57.85
Hamilton,32.2942,-64.7839
Vatican City,41.904,12.453
Alofi,-19.056,-169.921
Basse-Terre,16.0104,-61.7055
Hagåtña,13.4745,144.7504
Jamestown,-15.9251,-5.7179
Brades,16.7928,-62.2106
Yaren,-0.5477,166.9209
Gustavia,17.8958,-62.8508
Ngerulmud,7.5006,134.6242
Saint-Pierre,46.7811,-56.1764
The Valley,18.2167,-63.05
Mata-Utu,-13.2825,-176.1736
Kingston,-29.0569,167.9617
Longyearbyen,78.2167,15.6333
Adamstown,-25.0667,-130.0833
Flying Fish Cove,-10.4167,105.7167
King Edward Point,-54.2833,-36.5
Bareilly,28.364,79.415
Quảng Hà,15.9333,108.2667
Domaa-Ahenkro,7.2833,-2.8833
Oklahoma City,35.4676,-97.5136
Xingcheng,24.1681,115.6669
Dongtai,32.8534,120.3037
Yingcheng,24.1878,113.4042
Chiba,35.6073,140.1064
Al Mijlad,11.0339,27.74
Pekanbaru,0.5092,101.4453
Luocheng,22.7645,111.5745
Dnipro,48.4675,35.04
Danyang,31.9948,119.575
Godē,5.9527,43.5516
Natal,-6.9838,-60.2699
Nada,19.5,109.5833
Zamboanga City,6.9042,122.0761
Kirkuk,35.4667,44.3167
Bridgeport,41.1918,-73.1954
Naples,40.8333,14.25
Wuchuan,21.4283,110.7749
Huilong,31.8131,121.6574
Morelia,19.7683,-101.1894
Málaga,36.7194,-4.42
Cebu City,10.32,123.75
Al Manşūrah,31.05,31.3833
Coimbatore,11.0168,76.9558
Santo Domingo Este,18.4855,-69.8734
Setagaya,35.6466,139.6532
Sŏngnam,37.4333,127.15
Taishan,22.2486,112.785
Teresina,-5.0949,-42.8042
Solāpur,17.68,75.92
Tangier,35.7767,-5.8039
Kermānshāh,34.3142,47.065
Krasnodar,45.0333,38.9667
Baidoa,3.1167,43.65
Gaalkacyo,6.7697,47.4308
Anqiu,36.3619,119.1072
Feicheng,36.186,116.772
Seberang Jaya,5.4,100.4667
El Alto,-16.5047,-68.1633
Kitakyūshū,33.8833,130.8833
Meishan,34.1736,112.839
Khartoum North,15.6333,32.6333
Kisangani,0.5153,25.1911
Aguascalientes,21.876,-102.296
Marrakech,31.63,-8.0089
Donetsk,48.0028,37.8053
Trujillo,-8.112,-79.0288
New Orleans,30.0687,-89.9288
Taihe,30.8706,105.3784
Trichinopoly,10.7903,78.7047
Xin’an,34.3662,118.3369
Taihecun,45.768,131.0063
Kashgar,39.4681,75.9938
Naucalpan de Juárez,19.4753,-99.2378
Çankaya,39.9244,32.8856
Santiago de Cuba,20.0217,-75.8294
Owerri,5.4833,7.0333
Padang,-0.95,100.3531
Qingzhou,36.6967,118.4797
Lichuan,30.2965,108.9378
Santiago del Estero,-27.7833,-64.2667
Daye,30.1003,114.9699
Hengzhou,22.6896,109.2674
Fort Worth,32.7817,-97.3474
Hartford,41.7661,-72.6834
Esenyurt,41.047,28.658
Campo Grande,-20.4839,-54.615
Zhuanghe,39.6896,122.9664
Bobo-Dioulasso,11.1833,-4.2833
Ad Dammām,26.4333,50.1
Quzhou,28.9545,118.8763
Lhasa,29.6534,91.1719
Jiaozhou,36.2481,119.9625
Bunia,1.5667,30.25
Taguig City,14.52,121.05
Cancún,21.1606,-86.8475
Mérida,20.97,-89.62
Yangchun,22.1717,111.7846
Dengtalu,36.1386,114.1066
Morādābād,28.8389,78.7769
Antipolo,14.5842,121.1763
Abeokuta,7.1608,3.3483
Bucheon,37.5,126.7833
Zhoushan,29.9887,122.2049
Tiruppūr,11.1085,77.3411
Natal,-5.7833,-35.2
Chihuahua,28.6353,-106.0889
Klang,3.0333,101.45
As Sulaymānīyah,35.5572,45.4356
Gurgaon,28.456,77.029
Turin,45.0792,7.6761
Tucson,32.1541,-110.8787
Hai’an,32.532,120.4604
Ar Ramādī,33.4258,43.2992
Laiyang,36.9758,120.7136
Sale,34.0333,-6.8
Jalandhar,31.2569,75.4432
Marseille,43.2964,5.37
Bucaramanga,7.1333,-73.0
Kaifeng Chengguanzhen,34.8519,114.3481
Ikeja,6.6186,3.3426
Eskişehir,39.7767,30.5206
Saltillo,25.4231,-100.9919
Gaomi,36.3833,119.75
Liverpool,53.4075,-2.9919
Ipoh,4.5972,101.075
Oran,35.6969,-0.6331
Portsmouth,50.8058,-1.0872
Southampton,50.9025,-1.4042
Hermosillo,29.0989,-110.9542
Cochabamba,-17.3833,-66.1667
Weichanglu,37.1792,119.9333
Shache,38.4261,77.25
Wuxi,26.5895,111.8481
Leping,28.9632,117.1203
Hailun,47.4585,126.9632
Macheng,31.1817,115.0189
Akure,7.25,5.195
Ilorin,8.5,4.55
Yuci,37.6823,112.7281
Saratov,51.5333,46.0167
Erbil,36.1912,44.0092
Iguaçu,-22.74,-43.47
Pasig City,14.575,121.0833
Dehui,44.5333,125.7
Kālkāji Devi,28.5485,77.2513
Bhubaneshwar,20.27,85.84
Honolulu,21.3294,-157.846
Tongchuan,34.9057,108.9422
Cheongju,36.6333,127.4833
Chengxiang,31.4515,121.1043
Thessaloníki,40.6403,22.9347
Warri,5.5167,5.75
Sakai,34.5733,135.4831
Pointe-Noire,-4.8,11.85
Rongjiawan,29.1409,113.1087
Mediouna,33.45,-7.51
Butterworth,5.3992,100.3639
Renqiu,38.7094,116.1008
Xindi,29.8182,113.4653
Bhayandar,19.29,72.85
Wu’an,36.6941,114.1847
São Bernardo do Campo,-23.7,-46.55
Māndvi,19.3,72.85
Barinas,8.6333,-70.2
Zijinglu,34.7513,112.9854
Gaoyou,32.7847,119.4432
Culiacán,24.8069,-107.3939
Hejian,38.4451,116.0897
Yiyang,26.4103,112.3913
Puxi,35.2125,114.735
Androtsy,-24.1,46.3
McAllen,26.2252,-98.2467
Qingping,34.538,113.3796
Omaha,41.2627,-96.0529
João Pessoa,-7.12,-34.88
Dongyang,29.2785,120.2282
Querétaro,20.5875,-100.3928
Kraków,50.0614,19.9372
George Town,5.4144,100.3292
Abaeté,-19.1583,-45.4522
Palermo,2.8917,-75.4375
Valencia,39.47,-0.3764
Xigazê,29.25,88.8833
El Paso,31.8476,-106.43
Seyhan,36.9831,35.3328
Niigata,37.9161,139.0364
Hempstead,40.6629,-73.6089
Leeds,53.8003,-1.5497
Hamamatsu,34.7108,137.7275
Bağcılar,41.0344,28.8564
Xiangxiang,27.7389,112.5223
Bilbao,43.2569,-2.9236
Chaohucun,31.6783,117.7353
Fuyang,30.0553,119.95
Homs,34.7333,36.7167
Küçükçekmece,41.0,28.8
Lubango,-14.9167,13.5
Zouping,36.8625,117.7424
Khŭjand,40.2833,69.6333
San Luis Potosí,22.1511,-100.9761
Nottingham,52.9533,-1.15
Cencheng,22.9297,111.0186
Dali,25.6808,100.3003
Hamhŭng,39.9167,127.5333
Korla,41.7259,86.1746
Rājshāhi,24.3667,88.6
Erzurum,39.9086,41.2769
Frankfurt,50.1106,8.6822
Al ‘Ayn,24.2075,55.7447
Songzi,30.1772,111.7732
Albuquerque,35.1054,-106.6465
Patiāla,30.34,76.38
Laixi,36.8667,120.5333
Bahawalpur,29.3956,71.6836
Zhongba,31.7761,104.7406
Kaduna,10.5167,7.4333
Qingnian,36.8494,115.7061
San Pedro Sula,15.5,-88.0333
Qamdo,31.1375,97.1777
Xinhualu,34.3962,113.7249
Nerima,35.7355,139.6517
Guangshui,31.6189,113.8229
Pietermaritzburg,-29.6167,30.3833
Baardheere,2.3333,42.2833
Tlajomulco de Zúñiga,20.4736,-103.4431
Samarinda,-0.5,117.1378
Changhua,24.0667,120.5333
Sizhan,39.0099,106.3694
Ciudad Guayana,8.3667,-62.65
Cúcuta,7.8942,-72.5039
Dhūlia,20.8997,74.7697
Burco,9.5279,45.5345
Licheng,31.4174,119.4786
Ōta-ku,35.5613,139.716
Thiruvananthapuram,8.4875,76.9525
Tyumen,57.15,65.5333
Nampula,-15.1167,39.2667
Zaporizhzhia,47.85,35.1175
Kyaukse,21.6131,96.1303
Chengguan,35.5256,113.6976
Kumamoto,32.8031,130.7078
Nehe,48.48,124.8738
Osogbo,7.7667,4.5667
Cabinda,-5.56,12.19
Kermān,30.2833,57.0833
Zunhua,40.1881,117.9593
Rochester,43.168,-77.6162
Valenzuela,14.7,120.98
Orūmīyeh,37.5486,45.0675
Wugang,26.7345,110.6293
Shuangqiao,35.0833,112.5833
Tshikapa,-6.4167,20.8
São José dos Campos,-23.1789,-45.8869
Comodoro Rivadavia,-45.8647,-67.4808
Cagayan de Oro,8.4833,124.65
Tondo,14.617,120.967
Langzhong,31.5504,105.9938
Qian’an,40.0059,118.6973
Lviv,49.8425,24.0322
Sarasota,27.3387,-82.5432
Reynosa,26.0922,-98.2778
Santo André,-23.6572,-46.5333
An Najaf,32.0,44.33
Sagamihara,35.5667,139.3667
Guli,28.9008,120.0284
Mississauga,43.6,-79.65
Concepción,-36.8282,-73.0514
Okayama,34.65,133.9167
Anlu,31.2575,113.6783
Mwanza,-2.5167,32.9
Fresno,36.783,-119.7939
Changsha,22.3762,112.6877
Torreón,25.5394,-103.4486
Shihezi,44.3054,86.0804
Enugu,6.4528,7.5111
Jaboatão,-8.1803,-35.0014
Tulsa,36.1283,-95.9042
Yanggok,37.6333,127.2167
Yatou,37.1653,122.4867
Edogawa,35.7066,139.8683
Allentown,40.5961,-75.4756
Ribeirão Prêto,-21.1783,-47.8067
Xichang,27.8983,102.2706
Latakia,35.5167,35.7833
Bhiwandi,19.2967,73.0631
City of Parañaque,14.47,121.02
Dasmariñas,14.3294,120.9367
Dayton,39.7805,-84.2003
Sahāranpur,29.964,77.546
Warangal,17.9689,79.5941
Soledad,10.9167,-74.75
Osasco,-23.5328,-46.7919
Dashiqiao,40.6328,122.5021
Birmingham,33.5279,-86.7971
Nampo,38.7333,125.4
Shiliguri,26.71,88.43
Banjarmasin,-3.32,114.5925
Sha Tin,22.3802,114.1898
Salem,11.65,78.15
General Santos,6.1167,125.1667
Cocody,5.35,-3.9667
Ḩamāh,35.1333,36.75
Pendik,40.8747,29.235
Bacoor,14.4624,120.9645
Vellore,12.9165,79.1325
Shishi,24.7355,118.6434
Guadalupe,25.6775,-100.2597
Adachi,35.7749,139.8044
Qianxi,27.0284,106.0327
Tolyatti,53.5089,49.4222
Macau,22.2006,113.5461
Bauchi,10.3158,9.8442
Hamilton,43.2567,-79.8692
Łódź,51.7769,19.4547
Miluo Chengguanzhen,28.8049,113.0745
Gaizhou,40.4019,122.3499
Karbalā’,32.6167,44.0333
Leling,37.7333,117.2167
Jianshe,34.2189,113.7693
Shizuoka,34.9756,138.3828
Charleston,32.8168,-79.9687
Jingcheng,32.0058,120.2547
Kochi,9.97,76.28
Mar del Plata,-38.0,-57.55
Cape Coral,26.6443,-81.9957
Tasikmalaya,-7.3161,108.1975
Rasht,37.2808,49.5831
Xinmin,41.9952,122.8224
Shanhu,29.5908,120.8176
Zhongshu,27.8116,106.4133
Gorakhpur,26.7637,83.4039
Zaragoza,41.65,-0.8833
Wrocław,51.11,17.0325
Acapulco de Juárez,16.8636,-99.8825
Bahār,34.9072,48.4414
Kumul,42.8193,93.5151
Murcia,37.9861,-1.1303
Pinghu,30.7005,121.0104
Palermo,38.1157,13.3613
Guankou,30.9933,103.624
Tlaquepaque,20.6167,-103.3167
Songyang,34.4603,113.028
Ch’ŏngjin,41.7833,129.7667
Puyang Chengguanzhen,35.7004,114.98
Qionghu,28.8417,112.3595
Zhaodong,46.0635,125.9773
Narela,28.8527,77.0929
Huambo,-12.7767,15.7347
Wenchang,31.054,116.9507
Villavicencio,4.15,-73.6333
Shulan,44.4079,126.9429
Tlalnepantla,19.5367,-99.1947
Catia La Mar,10.6,-67.0333
Sargodha,32.0836,72.6711
Al Hufūf,25.3833,49.5833
Durango,24.025,-104.6675
Jalingo,8.9195,11.3264
Bouaké,7.6833,-5.0167
Mazatlán,23.2167,-106.4167
San Jose del Monte,14.8139,121.0453
Ansan,37.3167,126.8333
Abomey-Calavi,6.4486,2.3556
Lingbao Chengguanzhen,34.5221,110.8786
Hwasu-dong,37.1997,126.8314
Sialkot City,32.4925,74.5311
Huế,16.4667,107.5792
Bulawayo,-20.17,28.58
Xiping,25.6005,103.8166
Sanhe,39.9808,117.0701
Ch’ŏnan,36.8167,127.1667
Contagem,-19.9319,-44.0539
Jieshou,33.2605,115.3618
Selçuklu,37.8814,32.4922
Ērer Sātā,9.5667,41.3833
Honchō,35.6946,139.9826
Düsseldorf,51.2333,6.7833
Izhevsk,56.85,53.2167
Guntūr,16.3008,80.4428
Guixi,28.2861,117.2083
Sorocaba,-23.5017,-47.4581
Yıldırım,40.11,29.0821
Petaling Jaya,3.0972,101.6444
Tengyue,25.0208,98.4972
Wuxue,29.8518,115.5539
Rasūlpur,28.57,77.32
Bhāvnagar,21.76,72.15
Brahmapur,19.315,84.7941
Qufu,35.6,116.9833
Gaobeidian,39.3257,115.8678
Ruiming,25.8833,116.0333
Columbia,34.0378,-80.9036
Concord,37.9722,-122.0016
Noida,28.57,77.32
Gold Coast,-28.0167,153.4
Xinshi,31.0236,113.1079
Ta‘izz,13.5789,44.0219
Aracaju,-10.9167,-37.05
Jeonju,35.8167,127.15
Bhāngar,22.58,88.42
Jin’e,29.3395,105.2868
Barnaul,53.3333,83.75
Makati City,14.5567,121.0214
Rotterdam,51.9167,4.5
Changping,40.2248,116.1944
Benghazi,32.1167,20.0667
Kryvyi Rih,47.9086,33.3433
Ḩalwān,29.8453,31.3333
Colorado Springs,38.8674,-104.7605
Suohe,34.7879,113.392
Chimalhuacán,19.4167,-98.9
Xinxing,39.8734,124.1453
Bhilai,21.3667,81.7167
Mangalore,12.902,74.8253
Port-Bouët,5.2667,-3.9
Zhuangyuan,37.3056,120.8275
Glasgow,55.8611,-4.25
Namangan,41.0011,71.6683
Ulyanovsk,54.3167,48.3667
Tân An,10.905,106.6994
Irkutsk,52.2833,104.2833
Bhilai,21.21,81.38
Nāgercoil,8.1833,77.4119
Jos,9.9167,8.8903
Pontianak,-0.0206,109.3414
Bazhou,39.1235,116.386
Turpan,42.9512,89.1895
Villa Nueva,14.5314,-90.5964
Las Piñas City,14.45,120.98
Springfield,42.1155,-72.5395
Knoxville,35.9692,-83.9496
Meihekou,42.5279,125.678
Jurong,31.9579,119.1595
Feira de Santana,-12.25,-38.95
Khabarovsk,48.4833,135.0667
Zhugang,28.1277,121.2288
Leipzig,51.34,12.375
Xinji,37.9423,115.2118
Serang,-6.12,106.1503
Jambi,-1.59,103.61
Kandahār,31.62,65.7158
San Miguel de Tucumán,-26.8167,-65.2167
Gothenburg,57.7075,11.9675
Yaroslavl,57.6167,39.85
Baton Rouge,30.442,-91.1311
Zhangshu,28.0667,115.5375
Vladivostok,43.1333,131.9
Ogden,41.2279,-111.9682
Kuantan,3.8167,103.3333
Raurkela,22.2492,84.8828
Cuttack,20.5236,85.7881
Ar Rayyān,25.25,51.4
Haifa,32.8192,34.9992
Malanje,-9.5333,16.35
Bacolod,10.6765,122.9509
Zhuozhou,39.4887,115.9918
Grand Rapids,42.9619,-85.6562
Uberlândia,-18.9231,-48.2886
Albany,42.6664,-73.7987
Tianchang,32.6853,119.0041
Kawaguchi,35.8077,139.7241
Itabashi,35.7512,139.7093
Suginami-ku,35.6995,139.6364
Cimahi,-6.8712,107.5548
Tuxtla,16.7528,-93.1167
Garoua,9.3,13.4
Ḩafr al Bāţin,28.4342,45.9636
Tumkūr,13.34,77.1
Balikpapan,-1.2768,116.8277
Durban,-29.8833,31.05
Kagoshima,31.6,130.55
Al Ḩillah,23.4895,46.7564
Makhachkala,42.9833,47.4833
Sihui,23.3448,112.6956
Irapuato,20.6667,-101.35
Brampton,43.6833,-79.7667
Luocheng,30.9793,104.28
Mbale,1.0806,34.175
Pereira,4.8143,-75.6946
Bakersfield,35.3529,-119.0359
Uvira,-3.4,29.15
Dortmund,51.5167,7.4667
Chuxiong,25.0461,101.5436
Mission Viejo,33.6096,-117.6551
Zāhedān,29.4964,60.8628
New Haven,41.3113,-72.9246
Shah Alam,3.0722,101.5167
Wenlan,23.3989,103.3631
Cuiabá,-15.5958,-56.0969
Shangzhi,45.2116,127.962
Essen,51.4508,7.0131
Botou,38.074,116.57
Mymensingh,24.7539,90.4031
Anyang,37.3833,126.9333
Genoa,44.4111,8.9328
Durgāpur,23.55,87.32
Port Sudan,19.6167,37.2167
Al Mafraq,32.3399,36.2052
Puente Alto,-33.6167,-70.5667
Dehra Dūn,30.345,78.029
Aţ Ţā’if,21.2751,40.4062
Wancheng,18.8,110.4
Hachiōji,35.6664,139.316
Xiulin,29.7211,112.4037
Fu’an,27.1,119.6333
Tomsk,56.4886,84.9522
Tonalá,20.6167,-103.2333
Juiz de Fora,-21.7619,-43.3494
Worcester,42.2705,-71.8079
Kolwezi,-10.7167,25.4667
Chāpra,25.7848,84.7274
Bristol,51.4536,-2.5975
Luofeng,37.359,120.396
Lingyuan,41.2407,119.3957
Irbid,32.55,35.85
Al Maḩallah al Kubrá,30.9686,31.1636
Wencheng,19.6167,110.75
Bremen,53.0833,8.8
Ciudad Bolívar,8.1219,-63.55
Orenburg,51.7667,55.1
Shenzhou,38.0005,115.5541
Āsansol,23.68,86.99
Kuiju,36.8528,119.3904
Zhenzhou,32.2739,119.1619
Surakarta,-7.5667,110.8167
Dresden,51.05,13.74
Kolhāpur,16.6917,74.2333
Benguela,-12.55,13.4167
Ensenada,31.8578,-116.6058
Kemerovo,55.3667,86.0667
Lanxi,29.2167,119.4722
Dangyang,30.8258,111.791
Farīdpur,23.602,89.833
Herāt,34.3419,62.2031
Luanzhou,39.7396,118.6978
Hamadān,34.8064,48.5161
Novokuznetsk,53.7667,87.1333
Nellore,14.45,79.99
Palma,39.5667,2.65
Chiclayo,-6.763,-79.8366
Nānded,19.15,77.3
Ajmer,26.4499,74.6399
Al Ḩudaydah,14.8022,42.9511
Kimhae,35.2342,128.8811
Provo,40.2457,-111.6457
Rustenburg,-25.6667,27.2428
Amrāvati,20.9258,77.7647
Poznań,52.4083,16.9336
Huanghua,38.371,117.3329
Muntinlupa City,14.38,121.05
Londrina,-23.31,-51.1628
Nansana,0.3639,32.5286
Tabūk,28.3972,36.5789
Heroica Matamoros,25.8797,-97.5042
Akron,41.0798,-81.5219
Samarkand,39.6547,66.9758
Xingcheng,40.6189,120.7205
Kaiyuan,42.538,124.0371
Hannover,52.3667,9.7167
Valledupar,10.4833,-73.25
Fengcheng,40.4543,124.0646
Ixtapaluca,19.3186,-98.8822
Ghulja,43.9,81.35
City of Calamba,14.2167,121.1667
Ananindeua,-1.3658,-48.3719
Xiangyang,34.2999,108.4816
Fuding,27.2,120.2
An Nāşirīyah,31.0439,46.2575
Al Ḩillah,32.4833,44.4333
Ibagué,4.4333,-75.2333
Ryazan,54.63,39.7425
Kassala,15.45,36.4
Tripoli,34.4367,35.8344
Chang’an,29.4761,113.448
Kōtō-ku,35.6728,139.8173
Naberezhnyye Chelny,55.7,52.3333
Aksu,41.185,80.2904
Salta,-24.7833,-65.4167
Astrakhan,46.35,48.035
Gulbarga,17.329,76.825
Cadaado,6.1403,46.6256
Lyon,45.76,4.84
Wuhai,39.6844,106.8158
Mingguang,32.7816,117.9899
Antwerp,51.2178,4.4003
Yazd,31.8822,54.3397
Touba,14.8667,-15.8833
Ardabīl,38.2425,48.29
Bīkaner,28.0167,73.3119
Agartala,23.8333,91.2833
Ndola,-12.9667,28.6333
Himeji,34.8167,134.6833
Palm Bay,27.9631,-80.6593
Tultitlán de Mariano Escobedo,19.645,-99.1694
Ailan Mubage,43.908,81.2777
Bandar ‘Abbās,27.1833,56.2667
Bắc Ninh,21.1833,106.05
Ciudad Apodaca,25.7817,-100.1886
Santa Teresa del Tuy,10.2333,-66.65
Maipú,-33.5167,-70.7667
Penza,53.2,45.0
Soacha,4.5872,-74.2214
Al Qaţīf,26.556,49.996
Port Said,31.2625,32.3061
Loni,28.75,77.28
Yucheng,36.9329,116.6403
Sevastopol,44.605,33.5225
Meknès,33.895,-5.5547
Mixco,14.6338,-90.6146
Arāk,34.0917,49.6892
Pohang,36.0322,129.365
Longzhou,30.32,112.23
Anda,46.4078,125.3252
Jinghong,22.0057,100.7948
Sheffield,53.3808,-1.4703
Utsunomiya,36.5551,139.8826
Suez,29.9667,32.55
Nuremberg,49.4539,11.0775
Surrey,49.19,-122.8489
Heshan,22.7697,112.9578
Ujjain,23.17,75.79
Jiaji,19.2431,110.4642
Santa Marta,11.2419,-74.2053
Joinvile,-26.3204,-48.8437
Beining,41.5961,121.7928
Des Moines,41.5725,-93.6105
Hải Dương,20.9397,106.3306
Carrefour,18.5344,-72.4094
Maturín,9.7423,-63.1889
Homyel’,52.4453,30.9842
Leicester,52.6344,-1.1319
Yanji,42.9044,129.5067
Macapá,0.033,-51.0653
Yicheng,31.7117,112.2551
Ulhāsnagar,19.22,73.15
Al ‘Āshir min Ramaḑān,30.3065,31.7415
Lipetsk,52.6167,39.6
Al ‘Amārah,31.8333,47.15
Bhīlwāra,25.35,74.63
Encheng,22.1879,112.3131
Murrieta,33.5719,-117.1909
Aden,12.8,45.0333
Kitwe,-12.8167,28.2
Matsuyama,33.8333,132.7667
Jhānsi,25.4486,78.5696
Pingtung,22.6761,120.4942
Lapu-Lapu City,10.3127,123.9488
Matsudo,35.7876,139.9032
Montería,8.75,-75.8833
Ichikawa,35.7219,139.9311
Nagqu,31.4766,92.0569
Imus,14.4297,120.9367
Hsinchu,24.8167,120.9833
Kimberley,-28.7383,24.7639
Jammu,32.73,74.87
Belas,-8.9983,13.265
Talatona,-8.9167,13.1833
Ile-Ife,7.4667,4.5667
Purnea,25.778,87.476
Kirov,58.6,49.65
Mykolaiv,46.975,31.995
Meicheng,30.6412,116.5689
Tinnevelly,8.7136,77.7567
Niterói,-22.8833,-43.1036
Farāh,32.3436,62.1194
Sukkur,27.7061,68.8483
Oujda-Angad,34.6867,-1.9114
Taozhou,30.8956,119.411
Marka,1.6833,44.75
Higashi-ōsaka,34.6794,135.6008
Johor Bahru,1.4556,103.7611
Hongjiang,27.1167,109.95
Bello,6.3333,-75.5667
Chimbote,-9.0745,-78.5936
Duisburg,51.4347,6.7625
Qaraghandy,49.8028,73.1056
Mesa,33.4015,-111.7178
Toulouse,43.6045,1.444
Likasi,-10.9833,26.7333
Dengtacun,41.4237,123.3203
Lembok,-8.565,116.351
Zhijiang,30.4271,111.7506
Chengjiao,35.4043,114.0593
Beipiao,41.802,120.7621
Suoluntun,45.2279,124.8432
Staten Island,40.5834,-74.1496
Kota Bharu,6.1333,102.25
Ciudad López Mateos,19.55,-99.2833
Celaya,20.5222,-100.8122
Vinh,18.6667,105.6667
Duyun,26.2672,107.5143
Los Mochis,25.7835,-108.9937
‘Ajmān,25.4136,55.4456
Nyala,12.05,24.8833
Larkana,27.5583,68.2111
Wichita,37.6895,-97.3443
Nishinomiya-hama,34.7376,135.3416
Cheboksary,56.1333,47.25
Yuanping,38.7299,112.7134
Toledo,41.6638,-83.5827
Yueqing,28.1188,120.9621
Edinburgh,55.9533,-3.1892
Belgaum,15.85,74.5
Tula,54.2,37.6167
Gdańsk,54.3475,18.6453
Shahe,36.8622,114.502
Serra,-20.1289,-40.3078
Brookhaven,40.832,-72.9517
Gaoping,35.7911,112.9259
Dunhua,43.3667,128.2333
Az Zarqā’,32.0833,36.1
Sylhet,24.9,91.8667
Kaihua,23.3715,104.2437
Caerdydd,51.4817,-3.1792
Jāmnagar,22.47,70.07
Fuyuan,48.3614,134.2875
Gaya,24.75,85.01
Florianópolis,-27.6122,-48.4853
Chiniot,31.7194,72.9842
Jiannan,31.3446,104.1994
Ōita,33.2333,131.6067
Berbera,10.4356,45.0164
Kaliningrad,54.7003,20.4531
Mbeya,-8.9,33.45
Nangong,37.3606,115.3803
Ambattūr,13.1143,80.1548
Katlehong,-26.3333,28.15
Kurashiki,34.5833,133.7667
Barura,23.375,91.0583
San Juan,-31.5342,-68.5261
Vila Velha,-20.3364,-40.2936
Mazār-e Sharīf,36.7,67.1167
Shekhupura,31.7111,73.9878
Worthing,50.8147,-0.3714
Piura,-5.2,-80.6333
Mandaluyong City,14.58,121.03
Kartal,40.8872,29.19
Jiaojiangcun,28.6804,121.45
Harrisburg,40.2752,-76.8843
Laohekou,32.3849,111.6695
Kâğıthane,41.0719,28.9664
Agege,6.6219,3.3258
Angeles City,15.1472,120.5847
São José do Rio Prêto,-20.8081,-49.3811
Pasay City,14.55,121.0
Beian,48.2395,126.5037
Fujin,47.2489,132.0341
Salt Lake City,22.61,88.4
Balashikha,55.8167,37.9667
Xiaoyi,37.1449,111.7718
Port St. Lucie,27.2796,-80.3884
Lanús,-34.7,-58.4
Qingzhen,26.5555,106.4646
Jiangshan,28.7412,118.6225
Ba‘qūbah,33.75,44.6333
Katsushika-ku,35.7434,139.8472
Buraydah,26.3333,43.9667
Longjiang,27.582,120.5488
Tân Uyên,11.0508,106.7636
Long Beach,33.7977,-118.167
Marikina City,14.65,121.1
Manado,1.4931,124.8413
Campos,-21.7539,-41.3239
Kanazawa,36.5611,136.6564
Iloilo,10.7167,122.5667
Reno,39.5497,-119.8483
Calabar,4.9767,8.3383
Kuqa,41.7156,82.9322
Piraeus,37.943,23.6469
Madison,43.0822,-89.393
Jalgaon,21.004,75.568
Cranbourne,-38.0996,145.2834
Kowloon City,22.3282,114.1916
Mauá,-23.6678,-46.4608
Fukuyama,34.4833,133.3667
Xicheng,23.3629,103.1545
Kikwit,-5.0386,18.8181
Amagasaki,34.7333,135.4
Pyeongtaek,36.9922,127.1128
Kurnool,15.83,78.05
Little Rock,34.7256,-92.3577
Melaka,2.1944,102.2486
General Trias,14.3833,120.8833
Jian’ou,27.0387,118.3215
Esenler,41.0339,28.8903
Huadian,42.9633,126.7478
Ţanţā,30.7833,31.0
Kota Kinabalu,5.975,116.0725
Kursk,51.7167,36.1833
Minzhu,43.7192,127.337
Stavropol,45.05,41.9833
Udaipur,24.58,73.68
Mogi das Cruzes,-23.5228,-46.1878
Mariupol,47.0958,37.5494
Eslāmshahr,35.5606,51.2347
San Nicolás de los Garza,25.75,-100.2833
Greenville,34.8354,-82.3646
Sham Shui Po,22.3307,114.1622
Barcelona,10.1333,-64.6833
Constantine,36.365,6.6147
Tanbei,35.0907,112.9317
Ado-Ekiti,7.6167,5.2167
Batman,37.887,41.132
Bandung,-6.912,107.6097
Baisha,29.4774,119.2853
Avcılar,40.9792,28.7214
Denton,33.2175,-97.1418
Rodriguez,14.7167,121.1167
Taoyuan District,24.9913,121.3143
Yongji,34.867,110.4417
Chauddagram,23.2283,91.3133
Danjiangkou,32.5408,111.5098
Kahramanmaraş,37.5833,36.9333
Fujisawa,35.35,139.4667
Andijon,40.7833,72.3333
Mathura,27.4925,77.6736
Zürich,47.3744,8.5411
Diadema,-23.6861,-46.6106
Machida,35.7106,139.4386
Ulan-Ude,51.8272,107.6064
Spokane,47.6671,-117.433
Ning’an,44.3439,129.4656
Zhangjiakou Shi Xuanhua Qu,40.5944,115.0243
Sunch’ŏn,39.4167,125.9333
Jinchang,38.5168,102.1866
Kashiwa,35.8676,139.9758
Guangming,45.3357,122.7765
Sāngli,16.8667,74.5667
Oakland,37.7904,-122.2166
Beira,-19.8333,34.85
Kupang,-10.1702,123.6077
Jeju,33.5097,126.5219
Davangere,14.4666,75.9242
Caxias do Sul,-29.1667,-51.1833
Manizales,5.1,-75.55
Yogyakarta,-7.8014,110.3644
Calicut,11.25,75.77
Koumassi,5.3,-3.95
Veracruz,19.1903,-96.1533
Zanjān,36.6789,48.5056
Welkom,-27.9831,26.7208
Shinagawa-ku,35.6092,139.7302
Kenitra,34.25,-6.5833
Agadir,30.4333,-9.6
Somolu,6.5408,3.3872
Uyo,5.05,7.9333
Sokoto,13.0622,5.2339
Lancaster,40.042,-76.3012
Masan,35.1833,128.55
Huili Chengguanzhen,26.6614,102.2469
Sidi Bouzid,35.0381,9.4858
Cusco,-13.525,-71.9722
Porto Velho,-8.7619,-63.9039
Sihŭng,37.3799,126.8029
Xalapa,19.54,-96.9275
Florencio Varela,-34.8167,-58.2833
Tver,56.8578,35.9219
Trabzon,41.005,39.7225
Malatya,38.3486,38.3194
Xunyang,32.8357,109.359
Uijeongbu,37.7486,127.0389
Akola,20.7,77.0
Aomori,40.8223,140.7307
Yan’an Beilu,44.0144,87.2674
Owo,7.1961,5.5864
Aves,41.44,-8.3
Buenaventura,3.8772,-77.0267
Poughkeepsie,41.695,-73.9211
Laval,45.5833,-73.75
Boise,43.6005,-116.2308
Toyota,35.0824,137.1563
Santa Rosa,14.3167,121.1167
Daloa,6.8833,-6.45
Elazığ,38.6744,39.2228
Hpa-An,16.8906,97.6333
Rahimyar Khan,28.42,70.3
Bettiah,26.8014,84.5028
Ugep,5.8,8.0833
Winston-Salem,36.1029,-80.261
Kushtia,23.9101,89.1231
Mishan,45.542,131.8666
Hailin,44.5735,129.3825
Seremban,2.7222,101.9417
Boa Vista,2.8194,-60.6714
Lecheng,25.1307,113.3472
Zhengjiatun,43.513,123.5003
Luhansk,48.5667,39.3333
Pencheng,29.6792,115.6611
Magnitogorsk,53.3833,59.0333
Thủ Dầu Một,10.9667,106.65
Takamatsu,34.35,134.05
Syracuse,43.0407,-76.1437
El Obeid,13.1833,30.2167
Da’an,45.505,124.2863
Xingren,25.4352,105.1907
Biñan,14.3333,121.0833
Arusha,-3.3667,36.6833
Fenyang,37.2647,111.7775
Ajdābiyā,30.7556,20.2253
Paju,37.8667,126.8
Mataram,-8.5833,116.1167
Carapicuíba,-23.5192,-46.8358
Jhang City,31.2694,72.3161
Tepic,21.5083,-104.8931
Jayapura,-2.533,140.717
Rio Branco,-9.9747,-67.81
Toyama,36.6959,137.2137
Fangting,31.1282,104.1695
Sanandaj,35.3144,46.9922
Delhi Cantonment,28.6,77.1333
Linghai,41.1676,121.3558
Shorāpur,16.52,76.76
Toyonaka,34.7833,135.4667
Sochi,43.5853,39.7203
Bhāgalpur,25.25,87.0
Bellary,15.1,76.9167
Ivanovo,57.0,41.0
Kisumu,-0.0833,34.7667
Augusta,33.3645,-82.0708
Türkmenabat,39.0833,63.5667
Zaria,11.0667,7.7
Bryansk,53.25,34.3667
Kumi,36.1195,128.3444
Asyūţ,27.1833,31.1667
Wanyuan,32.0691,108.0351
Maracay,10.2469,-67.5958
Padiāla,30.5667,76.6333
Yüreğir,36.9981,35.3439
Jiexiu,37.0282,111.9103
Stockton,37.9765,-121.3109
Bogra,24.85,89.3667
Santa Fe,-31.6333,-60.7
Campina Grande,-7.2306,-35.8811
Nagasaki,32.7447,129.8736
Szczecin,53.4325,14.5481
Maringá,-23.4,-51.9167
Palm Coast,29.5389,-81.2457
Chattanooga,35.066,-85.2481
Qazvīn,36.2667,50.0
Quilon,8.88,76.6
Jundiaí,-23.1858,-46.8839
Hirakata,34.8167,135.65
Gifu,35.4232,136.7608
Khayelitsha,-34.0403,18.6778
Kūkatpalli,17.4849,78.4138
Jiangjiafan,31.0238,111.9709
Maungdaw,20.8167,92.3667
Kissimmee,28.3041,-81.4169
Durham,35.9792,-78.9022
Dera Ghazi Khan,30.0331,70.64
Miyazaki,31.9167,131.4167
Bhātpāra,22.87,88.41
Hazāribāgh,23.98,85.35
Sandakan,5.8388,118.1173
Taytay,14.5692,121.1325
Hejin,35.5914,110.706
Olinda,-8.0,-34.8833
Thanh Hóa,19.8075,105.7764
Surgut,61.25,73.4333
Nnewi,6.0167,6.9167
Minamisuita,34.7594,135.5169
Thiès,14.7833,-16.9167
Betsiboka,-16.95,46.83
Belgorod,50.6,36.6
Tāngāil,24.2644,89.9181
Yokosuka,35.25,139.6667
Nha Trang,12.245,109.1917
Malabon,14.66,120.96
Al Jahrā’,29.35,47.6833
Yola,9.23,12.46
Pasto,1.2078,-77.2772
Lobito,-12.3597,13.5308
Al Jubayl,27.0,49.6544
Saurimo,-9.65,20.4
Bologna,44.4939,11.3428
Arlington,32.6998,-97.125
Gujrat,32.5739,74.0789
Ad Dīwānīyah,31.9892,44.9247
Piracicaba,-22.7253,-47.6492
Hancheng,35.4768,110.4419
Karamay,45.5799,84.8892
Kākināda,16.9661,82.255
San-Pédro,4.75,-6.6333
Tieli,46.9838,128.04
Cilegon,-6.0027,106.0112
Darbhanga,26.17,85.9
Victorville,34.5277,-117.3536
Gwoza,11.0861,13.6914
Saki,8.6667,3.4
Tétouan,35.5667,-5.3667
Aqtöbe,50.2836,57.2297
Bibā,28.9218,30.9844
Plovdiv,42.15,24.75
Oyo,7.85,3.933
Ilesa,7.6167,4.7167
Tarlac City,15.4869,120.59
Okazaki,34.9543,137.1744
Sirūr,18.83,74.38
Cainta,14.5667,121.1167
Ḩā’il,27.5167,41.6833
Garoowe,8.4,48.4667
Olomouc,49.5939,17.2508
Yidu,30.388,111.4505
Lianzhou,24.7868,112.3735
Ceel Baraf,3.2073,45.7587
Florence,43.7714,11.2542
Christchurch,-43.531,172.6365
Nuevo Laredo,27.4861,-99.5069
Brno,49.1925,16.6083
Bawshar,23.5333,58.3833
London,42.9836,-81.2497
Novi Sad,45.2542,19.8425
Aurora,39.7083,-104.7237
Gusau,12.15,6.6667
Modesto,37.6375,-121.0028
Kaunas,54.8972,23.8861
Sardārshahr,28.4401,74.4908
Zêtang,29.238,91.771
Las Palmas,28.1272,-15.4314
Ichinomiya,35.3039,136.8031
Taunggyi,20.7836,97.0354
Lancaster,34.6935,-118.1753
Fayetteville,36.0714,-94.1661
Cantonment,31.5167,74.3833
Pānihāti,22.69,88.37
Huancayo,-12.0667,-75.2167
Betim,-19.9678,-44.1978
Usulután,13.35,-88.45
Sintra,38.7992,-9.3883
Chitungwiza,-17.9939,31.0481
Hatay,36.2025,36.1606
Iquitos,-3.75,-73.25
Sivas,39.75,37.0167
Helixi,30.6267,118.9861
Scranton,41.4044,-75.6649
Mamou,10.3833,-12.0833
Al Kharj,24.1483,47.305
Manukau City,-37.0,174.885
Stoke-on-Trent,53.0,-2.1833
Cumaná,10.45,-64.1667
Rohtak,28.8909,76.5796
Vinnytsia,49.2333,28.4833
Māler Kotla,30.5167,75.8833
Lipa City,13.9411,121.1622
Mandaue City,10.3333,123.9333
Bhawana,31.5661,72.6461
Khorramābād,33.4878,48.3558
Ambon,-3.7,128.1667
Takasaki,36.3219,139.0033
Butuan,8.9534,125.5288
Toyohashi,34.7692,137.3915
Keelung,25.1333,121.7333
Baguio City,16.4119,120.5933
La Florida,-33.5333,-70.5833
Gebze,40.8,29.4333
Lengshuijiang,27.6858,111.4279
Petare,10.4833,-66.8167
Anguo,38.4177,115.3204
Kita-ku,35.7528,139.7336
Madan,30.3392,48.3042
Panshi,42.9392,126.0561
Bharatpur,27.6833,84.4333
Az Zubayr,30.3833,47.7
Caucaia,-3.7167,-38.65
Vitsyebsk,55.1917,30.2056
Shinjuku,35.6939,139.7034
Nicolás Romero,19.5833,-99.3667
Huichang,34.9136,112.7852
Nagano,36.6486,138.1947
Bauru,-22.315,-49.0608
Yanjiao,39.9432,116.8036
Bochum,51.4819,7.2158
Tecámac,19.7131,-98.9683
Anápolis,-16.3339,-48.9519
Coventry,52.4081,-1.5106
Oxnard,34.1964,-119.1815
Korba,22.35,82.68
Cibinong,-6.485,106.842
Dāsarhalli,13.0465,77.513
Qardho,9.5,49.0833
Wŏnsan,39.1475,127.4461
Kocaeli,40.7625,29.9175
Newcastle,-27.7464,29.9328
Iligan,8.23,124.25
Youngstown,41.0993,-80.6463
Cabuyao,14.275,121.125
Kayapınar,37.94,40.19
Nakano,35.7073,139.6637
Utrecht,52.0833,5.1167
Bengkulu,-3.7956,102.2592
Orizaba,18.85,-97.1
Blumenau,-26.9333,-49.05
Montes Claros,-16.7306,-43.8639
Indio,33.7346,-116.2346
Pétion-Ville,18.5128,-72.2864
Tungi,23.9,90.41
Buurhakaba,2.7833,44.0833
Shuanghe,30.3866,106.7756
Konak,38.4189,27.1285
Ash Shuhadā’,30.6039,30.9021
Pensacola,30.4413,-87.1911
Umuahia,5.5333,7.4833
Gedaref,14.0333,35.3833
Palu,-0.895,119.8594
Mardan,34.2012,72.0258
Pokhara,28.2083,83.9889
Mahilyow,53.9167,30.35
Wudalianchi,48.6433,126.1408
Hrodna,53.6667,23.8333
Sungai Petani,5.65,100.48
Linxia Chengguanzhen,35.6,103.2167
Sīkar,27.62,75.15
Nam Định,20.42,106.1683
Vitória,-20.2889,-40.3083
Sasarām,24.95,84.03
Karūr,10.9601,78.0766
Franca,-20.5389,-47.4008
Vladimir,56.1286,40.4058
Karnāl,29.686,76.989
Kismaayo,-0.3581,42.5453
São Vicente,-23.9633,-46.3922
Kawagoe,35.9251,139.4858
Villahermosa,17.9892,-92.9281
Taraz,42.9,71.3667
Cubal,-13.1117,14.3672
Luena,-11.7918,19.9062
Ibb,13.9667,44.1667
Yong’an,25.9733,117.3593
Wuppertal,51.2667,7.1833
Manisa,38.6306,27.4222
San Fernando,15.0333,120.6833
Chānda,19.95,79.297
Minatitlán,17.9833,-94.55
Malmö,55.6058,13.0358
Nizhniy Tagil,57.9167,59.9667
San Pedro,14.3583,121.0583
Cuito,-12.3833,16.9333
Hongzhai,34.9857,104.5446
Guédiawaye,14.7833,-17.4
Wakayama,34.2333,135.1667
Tin Shui Wai,22.4608,114.0012
Pavlodar,52.3,76.95
Gimpo,37.7,126.6
Itaquaquecetuba,-23.4864,-46.3486
Nara,34.6844,135.805
Van,38.4942,43.38
Corrientes,-27.4833,-58.8167
Neiva,2.9345,-75.2809
Arkhangelsk,64.55,40.5333
Batangas,13.83,121.0
Licheng,24.4935,110.3902
Koshigaya,35.8911,139.7909
Sinŭiju,40.1,124.4
Cabimas,10.4,-71.4333
Yakeshi,49.2842,120.7283
Oruro,-17.9667,-67.1167
Ahmadnagar,19.08,74.73
Āvadi,13.1097,80.0972
Sarai Alamgir,32.9,73.75
Varna,43.2167,27.9167
Gorgān,36.8386,54.4347
Takatsuki,34.85,135.6167
Holguín,20.8869,-76.2592
Qo‘qon,40.5286,70.9425
Semey,50.4333,80.2667
Yingmen,39.9487,97.4395
Cariacica,-20.2639,-40.42
Palmira,3.5833,-76.25
Tapachula,14.9,-92.2667
Bydgoszcz,53.1219,18.0003
Antofagasta,-23.65,-70.4
Anaheim,33.839,-117.8574
Rājahmundry,16.98,81.78
Chita,52.0333,113.5
Bonita Springs,26.3558,-81.7859
Caruaru,-8.2828,-35.9758
Nice,43.7034,7.2663
Shāhjānpur,27.88,79.91
António Enes,-16.2333,39.9167
Central Coast,-33.3,151.2
Pamukkale,37.9167,29.1167
Wad Medani,14.4,33.5167
Öskemen,49.9833,82.6167
Tanch’ŏn,40.458,128.911
Tokorozawa,35.7996,139.4686
Hosūr,12.7409,77.8253
Serekunda,13.4333,-16.6667
Greensboro,36.0956,-79.8271
Kūstī,13.1667,32.6667
Cuddapah,14.47,78.82
Simferopol,44.9484,34.1
Sarıyer,41.1669,29.0572
Sumqayıt,40.5917,49.6397
Ōtsu,35.0167,135.85
Vitória da Conquista,-14.8658,-40.8389
Makiivka,48.0556,37.9611
Vũng Tàu,10.3833,107.1167
Brest,52.1347,23.6569
Uruapan,19.4208,-102.0628
Gómez Palacio,25.5611,-103.4983
Yeosu,34.7333,127.7333
Kaluga,54.5333,36.2667
Meram,37.8364,32.4383
Muzaffarpur,26.1225,85.3906
Alwar,27.5498,76.6355
Lublin,51.25,22.5667
Lianran,24.9211,102.4778
Buôn Ma Thuột,12.6667,108.05
Cuernavaca,18.9186,-99.2342
Alicante,38.3453,-0.4831
East London,-33.0175,27.9047
Tarsus,36.9165,34.8951
Matadi,-5.8167,13.4833
Islip,40.7385,-73.1888
Cimanggis,-6.3645,106.8591
Kaesŏng,37.9667,126.55
Beni,0.5,29.4667
Sultanbeyli,40.9683,29.2617
Huntsville,34.6981,-86.6412
Randburg,-26.0936,28.0064
Jitpur,27.6666,85.3333
Beylikdüzü,41.0011,28.6419
Petrolina,-9.3928,-40.5078
Chinju,35.2,128.0833
Tangdong,25.9755,113.2302
Reading,51.4542,-0.9731
Sambalpur,21.47,83.97
Hangu,39.232,117.777
Belfast,54.5964,-5.93
Shah Latif Town,24.8806,67.1625
Iwaki,37.0505,140.8877
Salamanca,20.5703,-101.1972
Yingzhong,32.2381,119.8133
Viña del Mar,-33.0244,-71.5517
Hirosaki,40.6031,140.4638
Bielefeld,52.0211,8.5347
Az Zaqāzīq,30.5667,31.5
Nazrēt,8.5414,39.2689
Cuenca,-2.8974,-79.0045
Tampere,61.4981,23.76
Bonn,50.7333,7.1
Al Fayyūm,29.3084,30.8441
Blida,36.4722,2.8333
Ciudad Obregón,27.4939,-109.9389
Uberaba,-19.7478,-47.9319
Corpus Christi,27.7254,-97.3767
Asan,36.7833,126.9833
Ribeirão das Neves,-19.7669,-44.0869
Soledad de Graciano Sánchez,22.1833,-100.9333
Maebashi,36.3895,139.0634
Kāmārhāti,22.6686,88.3704
Gəncə,40.6828,46.3606
Kendari,-3.9907,122.5086
Balıkesir,39.6333,27.8833
Thái Nguyên,21.6,105.85
Asahikawa,43.7706,142.365
Smolensk,54.7828,32.0453
Dahūk,36.8667,43.0
Wŏnju,37.3417,127.9208
Nakuru,-0.3,36.0667
Lafia,8.5,8.5167
Fort Wayne,41.0888,-85.1436
Güngören,41.0225,28.8717
Koriyama,37.4004,140.3597
Bamiantong,44.9164,130.5212
Taourirt,34.4169,-2.885
Rāmpur,28.8,79.0
Debrecen,47.53,21.6392
Cabanatuan City,15.4908,120.9678
Markham,43.8767,-79.2633
Fayetteville,35.085,-78.9772
Pelotas,-31.7719,-52.3425
Roodepoort,-26.1625,27.8725
Volzhskiy,48.8056,44.7417
Ann Arbor,42.2759,-83.731
Bijāpur,16.83,75.71
Sukabumi,-6.9181,106.9315
Tharād,24.3926,71.6248
Ratnāgiri,16.9944,73.3
Ulanhot,46.0726,122.0719
Yunzhong,39.8143,113.0946
Jackson,32.3157,-90.2125
Cotabato,7.22,124.25
Al Fallūjah,33.35,43.7833
Kōchi,33.5589,133.5314
Minna,9.6139,6.5569
Bielsko-Biała,49.8225,19.0444
Canoas,-29.92,-51.18
Gwangmyeongni,37.476,126.866
Cluj-Napoca,46.7667,23.5833
Bari,41.1253,16.8667
Pucallpa,-8.3833,-74.55
Kuching,1.5575,110.3439
Gonder,12.6075,37.4592
Kikuyu,-1.25,36.6667
Mekele,13.4969,39.4769
Gonaïves,19.4456,-72.6883
Guasave,25.5744,-108.4706
Naha,26.2122,127.6792
Nantes,47.2181,-1.5528
Binxian,35.0364,108.0764
Shimoga,13.9333,75.5667
Hotan,37.1,80.0167
Kaiyuan,23.7147,103.2585
Ciudad del Este,-25.5167,-54.6167
Temara,33.9267,-6.9122
Antioch,37.9787,-121.796
Uíge,-7.6167,15.05
Osh,40.5333,72.7833
Córdoba,37.8845,-4.7796
Camagüey,21.3839,-77.9075
Mobile,30.6782,-88.1162
San Salvador de Jujuy,-24.1833,-65.3
Al Kūt,32.4907,45.8304
Cherepovets,59.1167,37.9
Lexington,38.0423,-84.4587
San Miguelito,9.033,-79.5
Okene,7.55,6.2333
Timişoara,45.7597,21.23
Menongue,-14.6556,17.6842
Jūnāgadh,21.52,70.463
Katsina,12.9889,7.6008
Poltava,49.5894,34.5514
Maroua,10.5971,14.3157
Xiaoli,22.6782,113.2313
Kaech’ŏn,39.6986,125.9061
Asan,36.35,126.9167
Tehuacán,18.4617,-97.3928
Aksaray,38.3742,34.0289
Attiecoubé,5.3333,-4.0333
Coatzacoalcos,18.15,-94.4333
Saransk,54.1833,45.1833
Nukus,42.4667,59.6
Puerto Plata,19.8,-70.6833
Hāpur,28.7309,77.7757
Zalantun,48.0033,122.7365
Münster,51.9625,7.6256
Trichūr,10.52,76.21
An Nhơn,13.917,109.083
Taubaté,-23.025,-45.5556
Binangonan,14.4514,121.1919
Cirebon,-6.7071,108.5574
Safi,32.2833,-9.2333
Mitchells Plain,-34.0506,18.6181
Boaco,12.4719,-85.6594
Asheville,35.5707,-82.5537
Cà Mau,9.1833,105.15
Trenton,40.2237,-74.7641
Toshima,35.7261,139.7167
Vologda,59.2167,39.9
Barddhamān,23.2333,87.8667
Tanza,14.3944,120.8531
Bor,6.2125,31.5608
Kasur,31.1167,74.45
Yakou,33.2937,113.5203
Santa Rosa,38.4458,-122.7067
Orël,52.9686,36.0694
Shahr-e Qods,35.7214,51.1089
Kingston upon Hull,53.7444,-0.3325
Mannheim,49.4878,8.4661
Santa Ana,33.7367,-117.8819
Guarujá,-23.9936,-46.2564
Playa del Carmen,20.6281,-87.0755
Pasir Gudang,1.5028,103.9356
Datang,22.9481,113.9276
Panvel,18.9944,73.1139
Lansing,42.7142,-84.5601
Zarzal,4.3983,-76.0772
La Victoria,18.55,-69.9
Port Elizabeth,-33.9581,25.6
Alanya,36.55,32.0
Nizāmābād,18.672,78.094
Al ‘Ajamī,31.0959,29.7604
Quy Nhơn,13.7667,109.2333
Yakutsk,62.0272,129.7319
Yokkaichi,34.965,136.6244
Ponta Grossa,-25.0994,-50.1583
Catania,37.5,15.0903
Chalco,19.2647,-98.8975
Henderson,36.0133,-115.0381
Gwangju,37.3667,127.2833
Longquan,25.9106,114.786
Karlsruhe,49.0092,8.404
Shahrīār,35.6597,51.0592
Kurgan,55.4408,65.3411
Kasugai,35.2475,136.9722
St. Paul,44.9478,-93.1039
Sariwŏn,38.5064,125.7597
St. Catharines,43.1833,-79.2333
Karawang,-6.3125,107.295
Lakeland,28.0557,-81.9545
Niagara Falls,43.06,-79.1067
Oulgaret,11.957,79.7737
Taboão da Serra,-23.5328,-46.7994
Vladikavkaz,43.04,44.6775
Nghi Sơn,19.417,105.75
Juliaca,-15.4833,-70.1333
Parbhani,19.27,76.78
Hisar,29.15,75.7
Puerto La Cruz,10.2,-64.6333
Puerto Princesa,9.75,118.75
Podolsk,55.4311,37.5456
Meguro,35.6415,139.6983
Ciudad Victoria,23.7389,-99.1431
Ciudad Santa Catarina,25.6833,-100.45
Santarém,-2.43,-54.72
Newark,40.7245,-74.1725
Vaughan,43.8333,-79.5
Āwasa,7.05,38.4667
Ōakashichō,34.65,135.0
Yeşilyurt,38.2961,38.2489
Pekalongan,-6.8833,109.6667
Pondokaren,-6.2811,106.7019
Adıyaman,37.7639,38.2778
Kurume,33.3167,130.5167
Vila Nova de Gaia,41.1333,-8.6167
Paulista,-7.9408,-34.8728
Oaxaca,17.0606,-96.7253
Armenia,4.53,-75.68
Akita,39.72,140.1026
Awka,6.2,7.0667
San Bernardo,-33.5833,-70.7
Curepipe,-20.3188,57.5263
Iksan,35.9439,126.9544
Pachuca,20.1,-98.75
Al Maţarīyah,31.1833,32.0333
Sóc Trăng,9.6028,105.9736
Bahía Blanca,-38.7167,-62.2667
Coacalco,19.6333,-99.0931
San Juan del Río,20.3833,-99.9833
Fort Collins,40.5477,-105.0656
Limeira,-22.565,-47.4019
Popayán,2.4542,-76.6092
Praia Grande,-24.0061,-46.4028
Qianzhou,28.3185,109.7318
Newcastle,54.98,-1.61
Māldah,25.0119,88.1433
Ciudad General Escobedo,25.7933,-100.1583
Oyster Bay,40.7846,-73.514
Montpellier,43.6119,3.8772
Phan Thiết,10.9333,108.1
Stockport,53.4083,-2.1494
Al Qunfudhah,19.1264,41.0789
Bada Barabīl,22.12,85.4
Tampico,22.2553,-97.8686
Białystok,53.1353,23.1456
Coatepeque,14.7,-91.8667
Ash Shāmīyah,31.9636,44.5989
Mérida,8.48,-71.19
Chakwal,32.9303,72.8556
Murmansk,68.9706,33.075
Ar Raqqah,35.95,39.01
Afyonkarahisar,38.7578,30.5386
Bihār,25.197,85.518
Jember,-8.1727,113.6873
Valladolid,41.6528,-4.7236
Reading,40.34,-75.9267
Springfield,37.1943,-93.2916
İskenderun,36.5817,36.165
Al Mubarraz,25.4416,49.6642
Petrópolis,-22.505,-43.1789
Augsburg,48.3689,10.8978
Navotas,14.6667,120.9417
Chernihiv,51.4939,31.2947
Yangsan,35.3333,129.0333
Comilla,23.45,91.2
Irvine,33.6772,-117.7738
Bradford,53.8,-1.75
Tagum,7.4478,125.8078
Espoo,60.2056,24.6556
Valparaíso,-33.0461,-71.6197
Silang,14.2306,120.975
Finglas,53.4597,-6.2181
Rangpur,25.75,89.2444
Vigo,42.2314,-8.7124
Sikandarābād,28.4512,77.6955
Battalgazi,38.4228,38.3656
Bāli,22.65,88.34
Çorum,40.5455,34.957
Ismailia,30.5833,32.2667
Vila Teixeira da Silva,-12.0072,15.7792
Pānīpat,29.3875,76.97
Delmas,18.55,-72.3
Strasbourg,48.5833,7.7458
Mabalacat,15.2167,120.5833
Batna,35.55,6.1667
Āīzawl,23.7272,92.7178
Tambov,52.7167,41.4333
Dexing,28.958,117.7597
Iaşi,47.1622,27.5889
Kunp’o,37.35,126.95
San Lorenzo,-25.34,-57.52
Santa Maria,14.8183,120.9563
Sonpur,25.7,85.18
Groznyy,43.3125,45.6986
Kherson,46.6425,32.625
Anchorage,61.1508,-149.1091
The Woodlands,30.1738,-95.5134
Hong’an,47.21,123.61
Resistencia,-27.4514,-58.9867
Graz,47.0708,15.4386
Karīmnagar,18.4386,79.1288
Braşov,45.6667,25.6167
Sumida,35.7107,139.8015
Sekondi,4.9433,-1.704
South Bend,41.6767,-86.2696
Morioka,39.7021,141.1545
Sonīpat,28.99,77.022
Sétif,36.19,5.41
Atyraū,47.1167,51.8833
Ipswich,52.0594,1.1556
Dewās,22.96,76.06
Hulin,45.7671,132.9646
Rockford,42.2596,-89.064
Savannah,32.0286,-81.1821
Itagüí,6.1667,-75.6167
Croix-des-Bouquets,18.5761,-72.2269
Farg‘ona,40.3864,71.7864
Magway,20.15,94.95
Huixquilucan,19.3611,-99.3508
Lincoln,40.8099,-96.6784
Ichalkaranji,16.7,74.47
Punto Fijo,11.7167,-70.1833
Várzea Grande,-15.65,-56.1333
Sincelejo,9.295,-75.3961
Ibaraki,34.8164,135.5686
Katowice,50.2667,19.0167
Ar Ruşayfah,32.0178,36.0464
Camaçari,-12.6978,-38.3239
Jersey City,40.7184,-74.0686
San Cristóbal,7.7682,-72.2322
Round Lake Beach,42.3791,-88.0811
Bolton,53.578,-2.429
San Pablo,14.07,121.325
Suzano,-23.5428,-46.3108
Korhogo,9.4167,-5.6167
Bhatinda,30.23,74.9519
Cascavel,-24.9556,-53.4553
Flint,43.0236,-83.6921
Ostrava,49.8356,18.2925
Tacna,-18.0147,-70.2489
Shreveport,32.4653,-93.7955
Al Qurnah,31.0158,47.4306
Jālna,19.841,75.8864
Aarhus,56.1572,10.2107
Constanţa,44.1667,28.6333
San Juan Sacatepéquez,14.7189,-90.6442
Myeik,12.4333,98.6
Fukushima,37.7608,140.4747
Coro,11.395,-69.6816
Bago,17.3333,96.4833
Pasarkemis,-6.1703,106.53
Fuquan,26.7039,107.5087
Tongchuanshi,35.08,109.03
Sannai,24.5984,80.8281
Huozhou,36.5726,111.7176
Temuco,-38.7333,-72.6667
Ihosy,-22.4036,46.1258
Sterlitamak,53.6333,55.95
Tegal,-6.8667,109.1333
Ica,-14.0667,-75.7333
Lucena,13.9333,121.6167
Plano,33.0502,-96.7486
Jining,41.03,113.08
Chuncheon,37.8667,127.7333
Malārd,35.6658,50.9767
Pematangsiantar,2.96,99.06
Satna,24.6005,80.8322
Long Xuyên,10.3736,105.4458
Myrtle Beach,33.7094,-78.8844
Governador Valadares,-18.85,-41.9333
Petrozavodsk,61.7833,34.35
Santa Ana,13.995,-89.5561
Mau,25.9417,83.5611
Companiganj,22.875,91.2833
Wiesbaden,50.0825,8.24
Mingaora,34.7717,72.36
Davenport,41.5565,-90.6053
Bukhara,39.7667,64.4333
Sumbe,-11.2053,13.8417
Việt Trì,21.3,105.4333
Sunderland,54.906,-1.381
Bārāsat,22.72,88.48
Cherkasy,49.4444,32.0597
Maastricht,50.85,5.6833
Çorlu,41.15,27.8
Kostroma,57.7681,40.9269
Gyeongsan,35.8167,128.7333
Ciego de Ávila,21.8481,-78.7631
Mamuju,-2.6833,118.9
Los Alcarrizos,18.5167,-70.0167
Nizhnevartovsk,60.95,76.6
San Mateo,14.6969,121.1219
Shaowu,27.3417,117.4869
Canton,40.8078,-81.3676
Sfax,34.74,10.76
Dinājpur,25.6167,88.65
Dire Dawa,9.6,41.8667
Gagnoa,6.1333,-5.9333
Khmelnytskyi,49.4167,27.0
Farrukhābād,27.39,79.581
Lashkar Gāh,31.5831,64.3692
Posadas,-27.3667,-55.9
Gatineau,45.4833,-75.65
Windsor,42.2833,-83.0
Santa Clarita,34.4175,-118.4964
Kunsan,35.9833,126.7167
Minato,35.658,139.7515
Qarshi,38.8667,65.8
Chula Vista,32.6281,-117.0144
Saugor,23.83,78.71
Kafr ad Dawwār,31.1311,30.13
Ratlām,23.334,75.037
Yeosu,34.7607,127.6622
Crato,-7.4639,-63.04
Mỹ Tho,10.35,106.35
Volta Redonda,-22.5228,-44.1039
Eugene,44.0564,-123.1174
Tsu,34.7184,136.5057
Novorossiysk,44.7167,37.75
Bijiao,22.9311,113.2018
Székesfehérvár,47.1956,18.4089
Soubré,5.7833,-6.6
Palmas,-10.1844,-48.3336
Majene,-3.5403,118.9707
Sorong,-0.8667,131.25
Chandler,33.2825,-111.8514
Craiova,44.3333,23.8167
Thái Bình,20.4461,106.3422
Binjai,3.5986,98.4803
Fuchū,35.6689,139.4776
Gabela,-10.85,14.3667
Sakarya,40.7833,30.4
Dayr az Zawr,35.3333,40.15
Brāhmanbāria,23.9656,91.108
Mito,36.3658,140.4712
Sartā,36.4491,53.3234
Plymouth,50.3714,-4.1422
Santo Domingo de los Colorados,-0.2542,-79.1719
Arnavutköy,41.1856,28.7406
Nguru,12.8792,10.4525
Maradi,13.4833,7.1
Gombe,10.2904,11.17
Gijón,43.5333,-5.7
Drug,21.19,81.28
Floridablanca,7.2167,-73.0667
Handwāra,34.4,74.28
Quilmes,-34.7167,-58.2667
Talisay,10.25,123.8333
Kunduz,36.7286,68.8681
Yoshkar-Ola,56.6328,47.8958
Nalchik,43.4833,43.6167
Aswān,24.0889,32.8997
Ichihara,35.4981,140.1154
Salem,44.9233,-123.0244
Zhytomyr,50.25,28.6667
Imphāl,24.8074,93.9384
İnegöl,40.0806,29.5097
Chernivtsi,48.3,25.9333
Tarija,-21.5333,-64.7333
Siddhirganj,23.6833,90.5167
Bimo,4.2558,18.4042
Heroica Nogales,31.3186,-110.9458
Bergen,60.3894,5.33
Sumaré,-22.8219,-47.2669
Feni,23.0183,91.41
Sumy,50.9167,34.75
Anantapur,14.68,77.599
Westminster,51.4947,-0.1353
Xiangkhoang,19.4167,103.5
Marabá,-5.35,-49.1167
Kütahya,39.4167,29.9833
Gent,51.0536,3.7253
Yao,34.6269,135.601
Djelfa,34.6667,3.25
Barueri,-23.5111,-46.8764
Bordeaux,44.84,-0.58
Nagaoka,37.4462,138.8512
Suncheon,34.9506,127.4875
Jalālābād,34.4342,70.4478
Engels,51.5017,46.1222
Malolos,14.8433,120.8114
Nogales,31.1833,-111.0
Dezfūl,32.3825,48.4019
Ed Daein,11.4608,26.1283
Luque,-25.27,-57.4872
Potosí,-19.5892,-65.7533
Concord,35.3933,-80.6369
São José dos Pinhais,-25.535,-49.2058
Osmaniye,37.075,36.25
Arrah,25.5514,84.6603
Kyŏngju,35.85,129.2167
Dumai,1.6667,101.45
Tāluqān,36.7167,69.5167
Damanhūr,31.0361,30.4694
El Fasher,13.6306,25.35
Malkājgiri,17.4519,78.5362
Nawabshah,26.2442,68.41
Tchibota,-4.1794,11.3731
Annaba,36.9,7.7667
Gelsenkirchen,51.5167,7.1
Mönchengladbach,51.2,6.4333
Kakogawachō-honmachi,34.75,134.8333
Wollongong,-34.4331,150.8831
Gilbert,33.31,-111.7463
Nonthaburi,13.8667,100.5167
Columbus,32.51,-84.8771
Marilao,14.7581,120.9481
Fukui,36.0641,136.2196
Venice,45.4397,12.3319
Boksburg,-26.2125,28.2625
Quảng Ngãi,15.1167,108.8
Olongapo,14.83,120.28
Ciudad Benito Juárez,25.65,-100.0833
Hiratsuka,35.3167,139.35
Tiruvottiyūr,13.16,80.3
Oumé,6.3833,-5.4167
Sōka,35.8254,139.8053
Bunkyō-ku,35.708,139.7523
Aguadilla,18.4382,-67.1537
Al Ḩamzah,31.7339,45.0086
Lubbock,33.5657,-101.8879
Mossoró,-5.1878,-37.3439
Kotri,25.366,68.3122
North Las Vegas,36.2883,-115.0888
Tuzla,40.8161,29.3006
Singa,13.15,33.9333
Mişrātah,32.3775,15.092
Isparta,37.7647,30.5567
Derby,52.9217,-1.4767
Verona,45.4386,10.9928
Huayin,34.5664,110.0866
Siverek,37.75,39.3167
St. Petersburg,27.7931,-82.6652
Ndulo,-11.4833,15.8333
Rāniyah,36.255,44.8836
Germiston,-26.2178,28.1672
Tallahassee,30.4551,-84.2527
Mount Lavinia,6.8731,79.8758
Etāwah,26.77,79.03
Horlivka,48.3336,38.0925
Antsirabe,-19.8667,47.0333
Ondo,7.0833,4.8333
Indaiatuba,-23.0903,-47.2181
Puducherry,11.9167,79.8167
Laredo,27.5625,-99.4874
Ấp Đa Lợi,11.9333,108.4667
Foz do Iguaçu,-25.54,-54.5875
Khimki,55.8892,37.445
Sab‘ al Būr,33.4644,44.1536
Gravataí,-29.9333,-50.9833
Chiayi,23.48,120.4497
Kediri,-7.8111,112.0047
Damaturu,11.7444,11.9611
Tokushima,34.0703,134.5549
Arua,3.0353,30.9108
Peoria,40.752,-89.6154
Turmero,10.2283,-67.4753
Pointe-à-Pitre,16.2411,-61.5331
Kuala Terengganu,5.3292,103.1361
Campeche,19.85,-90.5306
Byatarayanpur,13.0659,77.5922
Mawlamyine,16.4847,97.6258
Godomè,6.3667,2.35
San Pedro Carchá,15.4768,-90.312
Moçâmedes,-15.1953,12.1508
La Paz,24.1422,-110.3108
Central District,22.2867,114.155
São Carlos,-22.0,-47.8908
Vitoria-Gasteiz,42.85,-2.6833
Wolverhampton,52.5833,-2.1333
Avondale,33.3873,-112.3235
Lafayette,30.2082,-92.0325
Ash Shaţrah,31.4097,46.1717
Irving,32.8583,-96.9702
Rishon LeẔiyyon,31.95,34.8
Montgomery,32.3482,-86.2668
Çekme,41.0369,29.1786
Jhenida,23.5417,89.1833
Bharatpur,27.22,77.48
Gadda Madiral,18.7519,79.5133
Shinozaki,33.95,130.9333
Goma,-1.6794,29.2336
Tacloban,11.2444,125.0039
Turku,60.45,22.2667
Rạch Giá,10.0167,105.0833
Kanggye,40.9667,126.6
Taganrog,47.2167,38.9167
Kızıltepe,37.1939,40.5861
El Geneina,13.45,22.45
Las Condes,-33.4117,-70.55
Hakodate,41.7686,140.7289
Uşak,38.6778,29.4042
Jūnāgarh,19.8599,82.9338
Begusarai,25.42,86.13
São José,-27.6,-48.6167
A Coruña,43.3667,-8.3833
Los Teques,10.3411,-67.0406
Jinshi,29.6334,111.8746
Chōfugaoka,35.6506,139.5407
Tsing Yi Town,22.3456,114.1
Higüey,18.6167,-68.7
Juazeiro do Norte,-7.2,-39.3333
Bata,1.865,9.77
Al Minyā,28.1194,30.7444
Aachen,50.7756,6.0836
Bābol,36.5514,52.6789
Komsomol’sk-na-Amure,50.5667,137.0
Iwo,7.6333,4.1833
Rivne,50.6192,26.2519
Galaţi,45.4233,28.0425
Natogyi,21.4167,95.65
Braunschweig,52.2667,10.5167
Kalār,34.6292,45.3222
Al Bayḑā’,32.7664,21.7417
Yanbu,24.0883,38.0582
Kurmuk,10.55,34.2833
Shibuya-ku,35.6637,139.6977
Gāndhīdhām,23.08,70.13
Manzhouli,49.5881,117.4525
Visalia,36.3276,-119.3269
Gdynia,54.5,18.5333
Rāmnagar,27.17,84.32
Palangkaraya,-2.21,113.92
Chemnitz,50.8333,12.9167
Chigasaki,35.3333,139.4
Büyükçekmece,41.02,28.5775
Khomeynī Shahr,32.7003,51.5211
Carmen,18.4167,-91.6333
McKinney,33.2016,-96.667
Sahiwal,30.6611,73.1083
Qā’em Shahr,36.4631,52.86
Banikoara,11.3,2.4333
Kiel,54.3233,10.1394
Sibu,2.3,111.8167
Yato,35.4833,139.45
Paraná,-31.7331,-60.5297
Santa Clara,22.4069,-79.9649
Yamagata,38.2554,140.3396
Katihār,25.53,87.58
Beykoz,41.1342,29.0922
Imperatriz,-5.5333,-47.4833
Oruro,-17.9799,-67.13
Merlo,-34.6653,-58.7275
Tsukuba-kenkyūgakuen-toshi,36.0835,140.0764
Wilmington,34.2099,-77.8866
Kesbewa,6.7953,79.9386
Barnsley,53.5547,-1.4791
Chesapeake,36.6778,-76.3023
Syktyvkar,61.6667,50.8167
Győr,47.6842,17.6344
Birāṭnagar,26.4542,87.2797
Hafizabad,32.0714,73.6878
Saskatoon,52.1333,-106.6833
Krishnarājpur,13.012,77.6951
Abertawe,51.6167,-3.95
Americana,-22.7386,-47.3311
Mahajanga,-15.7167,46.3167
Long Khánh,10.917,107.167
Nelamangala,13.102,77.374
Jessore,23.1704,89.2
Beichengqu,40.4348,113.1565
Glendale,33.5791,-112.2311
Tuy Hòa,13.0819,109.295
Garland,32.91,-96.6304
Singrauliya,24.11,82.39
Fuji,35.1613,138.6763
Mokpo,34.7589,126.38
Kabinda,-6.13,24.48
Tanga,-5.0667,39.1
Santa Maria,-29.6833,-53.8
Sabzevār,36.2125,57.6819
Bānchpār,23.2,90.8
Rāmgundam,18.7639,79.475
Tarapoto,-6.4833,-76.3667
Bahir Dar,11.6,37.3833
Baruta,10.4322,-66.8739
Sapele,5.8261,5.6536
Sasebo,33.18,129.715
Myitkyina,25.3833,97.4
Pandharpur,17.6778,75.3278
Sakākā,29.9697,40.2
Haeju,38.0333,125.7167
Petaẖ Tiqwa,32.0889,34.8864
González Catán,-34.7667,-58.6167
Masaurhi Buzurg,25.35,85.02
Qyzylorda,44.85,65.5167
Diaobingshancun,42.4391,123.5426
Man,7.4,-7.55
Zhangping,25.2938,117.4148
Dagana,16.4833,-15.6
Bạc Liêu,9.2833,105.7167
Kennewick,46.1978,-119.1732
Lille,50.6278,3.0583
Düzce,40.8417,31.1583
Ipatinga,-19.5,-42.5333
Anju,39.62,125.66
Marília,-22.2139,-49.9458
Winter Haven,28.0118,-81.7014
Monclova,26.9103,-101.4222
Stavanger,58.97,5.7314
Abī al Khaşīb,30.4411,47.9725
Atushi,39.7162,76.1684
Chimoio,-19.1167,33.45
Limassol,34.6747,33.0442
Ivano-Frankivsk,48.9228,24.7106
Novo Hamburgo,-29.6778,-51.1308
Halle,51.4828,11.9697
Arakawa,35.7361,139.7834
Longueuil,45.5333,-73.5167
Szeged,46.255,20.145
Viamão,-30.0808,-51.0228
Košice,48.7167,21.25
Matsumoto,36.238,137.972
Tuticorin,8.7642,78.1348
Banda Aceh,5.55,95.3175
Shenmu,38.827,110.499
Springs,-26.2547,28.4428
Taiping,4.85,100.7333
Zinder,13.8053,8.9883
Gangānagar,29.92,73.88
As Sīb,23.6703,58.1891
P’yŏng-dong,39.25,125.85
Scottsdale,33.6872,-111.8651
Āmol,36.4697,52.3508
Norfolk,36.8945,-76.259
Nyíregyháza,47.9531,21.7271
Eindhoven,51.4333,5.4833
Killeen,31.0753,-97.7297
Wuyishan,27.7562,118.0267
Mirpur Khas,25.5269,69.0111
Sandnes,58.8517,5.7361
Beji,-6.3704,106.8176
Pathein,16.7778,94.7369
Nizhnekamsk,55.6333,51.8167
Magdeburg,52.1317,11.6392
Neya,34.7667,135.6333
Rewa,24.53,81.3
Chishui,28.5902,105.6946
Centurion,-25.8603,28.1894
Uluberiya,22.47,88.11
Djougou,9.7,1.6667
Pākdasht,35.4817,51.6803
Shakhty,47.7,40.2333
North Hempstead,40.7912,-73.6688
York,39.9651,-76.7315
Atlantic City,39.3797,-74.4527
Ibb,13.9759,44.1709
Elche,38.2669,-0.6983
Abhā,18.2169,42.5053
Bulandshahr,28.4069,77.8497
Groningen,53.2167,6.5667
Nashua,42.7491,-71.491
Jacareí,-23.3053,-45.9658
Arlington,38.8786,-77.1011
Brownsville,25.9975,-97.458
Bole,44.8539,82.0514
Ganda,-13.0858,14.7417
Cannanore,11.8689,75.3555
Najafābād,32.6347,51.3653
Bayamo,20.3817,-76.6428
Kamianske,48.5167,34.6167
Borūjerd,33.8972,48.9017
Singaraja,-8.1167,115.0833
Macaé,-22.3708,-41.7869
Miri,4.3925,113.9861
Machala,-3.2667,-79.9667
Kasulu,-4.58,30.1
Longquan,28.0733,119.1277
Granada,37.1781,-3.6008
Bo,7.9564,-11.74
Messina,38.1936,15.5542
Oral,51.2225,51.3725
Badalona,41.4333,2.2333
Formosa,-26.1833,-58.1833
San Cristóbal,18.4167,-70.1056
Arapiraca,-9.7519,-36.6608
Mambéré,5.5,15.5
Damboa,11.15,12.75
Okara,30.8092,73.4536
Saidpur,25.8004,89.0
Freiburg im Breisgau,47.995,7.85
Khénifra,32.9394,-5.6675
Saga,33.2667,130.3
Rāichūr,16.2,77.37
Burnaby,49.2667,-122.9667
Meycauayan,14.7333,120.95
Sơn Tây,21.1333,105.5
Nazipur,25.0415,88.7605
Rancagua,-34.1667,-70.75
Kasukabe,35.9753,139.7523
Dzerzhinsk,56.2333,43.45
Phú Yên,21.4156,105.8739
Bratsk,56.1167,101.6
Barishal,22.7,90.3667
Jiayuguan,39.8112,98.2862
Santa Ana,14.58,121.012
Eloy Alfaro,-2.1733,-79.8311
Envigado,6.1667,-75.5667
Banfield,-34.75,-58.3833
Guadalupe,22.7528,-102.5078
Ageoshimo,35.9774,139.5932
Fremont,37.5265,-121.9843
Qarchak,35.4394,51.5689
Gulfport,30.4274,-89.0704
Purwokerto,-7.4278,109.2417
Puerto Vallarta,20.6458,-105.2222
Toluca,19.2925,-99.6569
Ormoc,11.0106,124.6075
Neuquén,-38.9525,-68.0642
Fresnillo,23.175,-102.8675
Singkawang,0.9,108.9833
Orsk,51.2,58.5667
Vizianagaram,18.1159,83.406
Manavgat,36.7833,31.4333
Cotia,-23.6042,-46.9194
Pāli,25.77,73.33
Songadh,21.167,73.564
Noginsk,64.4833,91.2333
Kropyvnytskyi,48.5,32.2667
Haridwār,29.945,78.163
Ordu,40.9833,37.8833
Taitō,35.7126,139.78
Ternopil,49.5667,25.6
Bojnūrd,37.475,57.3333
Rondonópolis,-16.4667,-54.6333
Cobán,15.4833,-90.3667
Guantánamo,20.1367,-75.2139
Krefeld,51.3333,6.5667
Pāthardi,19.17,75.18
Şabyā,17.1489,42.6258
Kolpino,59.7333,30.6
Petlād,22.47,72.8
Khanewal,30.3,71.9333
Magé,-22.6528,-43.0408
Ninh Hòa,12.4917,109.1258
Khatīma,28.92,79.97
Apapa,6.45,3.3667
Choloma,15.6136,-87.9511
Capiatá,-25.35,-57.42
Pallāvaram,12.9675,80.1491
Nadiād,22.69,72.86
Tarrasa,41.5611,2.0081
Daşoguz,41.8333,59.9667
Probolinggo,-7.75,113.2167
Cikupa,-6.4947,106.6511
Evansville,37.9881,-87.5341
Araraquara,-21.7939,-48.1758
Quetzaltenango,14.8333,-91.5167
Angarsk,52.55,103.9
Sousse,35.8333,10.6333
Nyanza,-2.35,29.7333
Cox’s Bāzār,21.4272,92.005
Takarazuka,34.8114,135.3406
Atsugichō,35.4333,139.3667
Itapevi,-23.5489,-46.9342
Marcory,5.3,-3.9833
Toamasina,-18.15,49.4167
Padangsidempuan,1.3786,99.2722
Varāmīn,35.3242,51.6458
Mutare,-18.9667,32.6333
Mubi,10.2604,13.2606
Chuādānga,23.644,88.8556
Korolëv,55.9167,37.8167
Hunchun,42.8679,130.3585
Blagoveshchensk,50.2578,127.5364
Velikiy Novgorod,58.521,31.2758
Longjin,22.8711,113.0684
Rennes,48.1147,-1.6794
Ashdod,31.8,34.65
Częstochowa,50.8,19.1167
Carlos Manuel de Céspedes,21.5767,-78.2775
Chapecó,-27.0958,-52.6178
Hialeah,25.8696,-80.3045
Ōta,36.2911,139.3754
Sandton,-26.107,28.0517
Navarre,30.4174,-86.8907
Ijebu-Ode,6.8208,3.9208
Tilburg,51.55,5.0833
Cork,51.8972,-8.47
Tanjore,10.787,79.1378
Bandar-e Būshehr,28.9264,50.8514
Hachinohe,40.5123,141.4884
Staryy Oskol,51.2981,37.835
Kichha,28.92,79.5
Secunderābād,17.4399,78.4983
Tiptūr,13.26,76.48
Ji’an Shi,41.1231,126.1815
Mallawī,27.7333,30.8333
José C. Paz,-34.5167,-58.7667
Bel Air South,39.5022,-76.3113
Rufisque,14.7167,-17.2667
Presidente Prudente,-22.1256,-51.3889
Barra do Dande,-8.4728,13.3731
Hobart,-42.8806,147.325
Swindon,51.56,-1.78
Lutsk,50.75,25.3358
Katri,23.48,80.4
Sambhal,28.58,78.55
Guéckédou,8.5667,-10.1333
Sabadell,41.5483,2.1075
Neyshābūr,36.22,58.82
North Port,27.0576,-82.1977
Radom,51.4036,21.1567
Santa Luzia,-19.77,-43.8506
Polokwane,-23.9,29.45
Chí Linh,21.133,106.383
Tchaourou,8.8833,2.6
Duekoué,6.7333,-7.35
San Felipe,10.3353,-68.7458
Sāveh,35.0214,50.3567
San Bernardino,34.1416,-117.2943
Portland,43.6773,-70.2715
Santo Tomas,14.0833,121.1833
Osisioma,5.1497,7.3303
La Vega,19.22,-70.53
Nishitōkyō,35.7256,139.5383
Damietta,31.4167,31.8214
Pangkalpinang,-2.1333,106.1167
Juazeiro,-9.4306,-40.5028
Kremenchuk,49.0631,33.4039
Itabuna,-14.7858,-39.28
Ānand,22.556,72.951
Ciputat,-6.3111,106.7619
Al Khubar,26.2833,50.2
Peñalolén,-33.4833,-70.55
Islington,51.544,-0.1027
Mainz,49.9833,8.2667
Konibodom,40.2833,70.4167
Zākhū,37.15,42.6833
Enterprise,36.0091,-115.2278
Bremerton,47.5436,-122.7121
Córdoba,18.8942,-96.9347
Green Bay,44.5148,-87.9895
Tuluá,4.0833,-76.2
Pleiku,13.9833,108.0
Hortolândia,-22.8583,-47.22
Bitung,1.4472,125.1978
Naihāti,22.89,88.42
Petrel,38.4789,-0.7967
Kafue,-15.7667,28.1833
Jiutepec,18.8833,-99.1667
Manta,-0.95,-80.7162
Osan,37.1498,127.0771
San Miguel,13.4814,-88.1775
Butembo,0.15,29.2833
Netanya,32.3286,34.8567
Oviedo,43.36,-5.845
Itaboraí,-22.7439,-42.8589
Appleton,44.278,-88.3892
Zamora,19.9833,-102.2833
Alor Setar,6.1183,100.3694
Luton,51.8783,-0.4147
Babylon,40.6925,-73.3586
Laâyoune,27.1536,-13.2033
Shashemenē,7.2,38.6
Tân An,10.5333,106.4167
Spring Valley,36.0952,-115.2636
Denov,38.2667,67.9
Cartagena,37.6,-0.9819
Tacoma,47.2431,-122.4531
Yamunānagar,30.133,77.288
Lübeck,53.8697,10.6864
Zielona Góra,51.9333,15.5
Maţraḩ,23.6167,58.5667
Qostanay,53.2,63.62
Banjarbaru,-3.4425,114.8325
Sa Đéc,10.3,105.7667
Wayaobu,37.1398,109.6711
Valencia,7.9042,125.0928
Norwich,52.6286,1.2928
Gujiao,37.9069,112.17
Ayacucho,-13.1631,-74.2244
Petropavl,54.8833,69.1667
Madiun,-7.63,111.5231
Dongxing,21.5833,108.05
Zhubei,24.8333,121.0119
São Leopoldo,-29.76,-51.1469
Hebron,31.5333,35.095
Spartanburg,34.9442,-81.9251
Marg‘ilon,40.4711,71.7247
Ar Ruseris,11.85,34.3833
Trece Martires City,14.2833,120.8667
Gangneung,37.75,128.9
Roanoke,37.2785,-79.9581
Cúa,10.1667,-66.8833
Almere,52.3667,5.2167
As Samāwah,31.3167,45.2833
Monghyr,25.381,86.465
Vantaa,60.2944,25.0403
Kāpra,17.4859,78.5651
Golmud,36.4072,94.9283
Comalcalco,18.2801,-93.2018
Geneva,46.2017,6.1469
Regina,50.4547,-104.6067
La Victoria,10.2278,-67.3336
Shimla,31.1033,77.1722
Northampton,52.2304,-0.8938
Babruysk,53.15,29.2333
Mohammedia,33.6833,-7.3833
Erfurt,50.9833,11.0333
Sete Lagoas,-19.4658,-44.2469
Sikasso,11.3167,-5.6667
Warnes,-17.5167,-63.1667
Móstoles,40.3333,-3.8667
Quilicura,-33.3667,-70.7333
Chilas,35.4194,74.0944
Cao Lãnh,10.4672,105.6303
El Tigre,8.8858,-64.2611
Gokāk,16.1667,74.8333
Divinópolis,-20.1389,-44.8839
Gainesville,29.6804,-82.3459
Colombo,-25.2919,-49.2239
Jerez de la Frontera,36.6817,-6.1378
Puri,19.8106,85.8314
Sidi Bel Abbès,35.2,-0.6333
Nandyāl,15.48,78.48
Limbe,4.0167,9.2167
Kure,34.25,132.5667
Tumaco,1.8067,-78.7647
Padova,45.4064,11.8778
Irákleio,35.3403,25.1344
Deltona,28.905,-81.2137
Arroyo Naranjo,23.0436,-82.3328
Bhadrāvati,13.8485,75.705
Colón,9.3572,-79.8986
Linz,48.3058,14.2864
Oberhausen,51.4967,6.8706
Criciúma,-28.6775,-49.3697
Kuje,8.8822,7.2203
Mytishchi,55.9167,37.7667
Lyubertsy,55.6783,37.8944
Pamplona,42.8167,-1.65
Panchkula,30.74,76.8
Kalamazoo,42.2749,-85.5882
Pskov,57.8167,28.3333
Bila Tserkva,49.7956,30.1167
‘Aqrah,36.7414,43.8933
Ploieşti,44.9411,26.0225
Isesaki,36.3114,139.1968
Naga City,13.6244,123.1864
Burgas,42.503,27.4702
Burhānpur,21.3,76.23
Chungju,36.9667,127.95
Maracanaú,-3.8667,-38.6333
Thousand Oaks,34.1914,-118.8756
Hickory,35.741,-81.3223
Pagadian,7.8272,123.4364
Legazpi City,13.1333,123.7333
Barrancabermeja,7.0667,-73.85
Bukit Mertajam,5.3631,100.4667
Kirātot,32.8376,76.2296
Ashaiman,5.7,-0.0333
Taisheng,23.2938,113.353
Sidon,33.5606,35.3758
Rostock,54.0833,12.1333
Guarenas,10.4739,-66.5383
Santa Cruz,28.4667,-16.25
Panabo,7.3,125.6833
Dongning,44.0608,131.1187
Borj Hammoud,33.8936,35.5403
Kasangati,0.4378,32.6025
Solihull,52.413,-1.778
Burutu,5.35,5.5167
Nasīm Shahr,35.5644,51.1647
Moratuwa,6.7991,79.8767
Yonkers,40.9466,-73.8673
Ich’ŏn,37.2667,127.4333
Milton Keynes,52.04,-0.76
Marawi City,8.0,124.3
Puerto Cabello,10.4667,-68.0167
Beersheba,31.2589,34.7997
Huangyan,28.65,121.25
Oulu,65.0142,25.4719
Santo Agostinho,-8.2897,-35.03
Lubuklinggau,-3.2967,102.8617
Mary,37.6,61.8333
Sunyani,7.3333,-2.3333
Cascais,38.7,-9.4167
Northcote,-36.8019,174.7494
Moreno Valley,33.9244,-117.2045
Qinā,26.1667,32.7167
Toledo,10.3833,123.65
Kharagpur,22.3302,87.3237
Waitakere,-36.85,174.543
Fontana,34.0968,-117.4599
Monywa,22.1083,95.1417
Dindigul,10.35,77.95
Robertsonpet,12.9563,78.2754
Morogoro,-6.8242,37.6633
Pingzhen,24.9439,121.2161
Banī Suwayf,29.0667,31.0833
College Station,30.5852,-96.2959
Bà Rịa,10.4992,107.1675
Cidade de Nacala,-14.5428,40.6728
Talca,-35.4269,-71.6656
Fargo,46.8651,-96.8292
Portoviejo,-1.0561,-80.4553
Parakou,9.35,2.6167
Hospet,15.2689,76.3909
Trieste,45.6503,13.7703
San Carlos City,15.9281,120.3489
Kodaira,35.7285,139.4774
Itami,34.7833,135.4
Lingampalli,17.4865,78.317
Kalemie,-5.9128,29.1906
Kamirenjaku,35.6836,139.5595
Loures,38.8333,-9.1667
Biskra,34.85,5.7333
Ingrāj Bāzār,25.0044,88.1458
Phủ Từ Sơn,21.1189,105.9611
La Ceiba,15.7792,-86.7931
Bené Beraq,32.0833,34.8333
Nagareyama,35.8563,139.9029
Ongole,15.506,80.049
Zanzibar,-6.165,39.199
Jiutai,44.1447,125.8443
Bolu,40.7347,31.6075
Ziguinchor,12.5833,-16.2667
Ternate,0.78,127.3819
Puqi,29.7204,113.88
Qal‘at Bīshah,20.0,42.6
Ellore,16.7117,81.1031
Betigeri,15.443,75.6442
Passo Fundo,-28.25,-52.4
Banjar,-7.3667,108.5333
Kinh Môn,21.033,106.5
Bingerville,5.35,-3.9
Bắc Giang,21.2667,106.2
Sejong,36.487,127.2822
Yachiyo,35.7224,140.0999
Amarillo,35.1984,-101.8316
Mandi Burewala,30.15,72.6833
Vĩnh Long,10.25,105.9667
Mokameh,25.3898,85.9191
Coquimbo,-29.9531,-71.3433
Tekirdağ,40.9778,27.5153
Huntington,40.8521,-73.3823
Parnamirim,-5.9167,-35.25
Holon,32.0167,34.7667
Kukawa,12.9167,13.5667
Biysk,52.5333,85.2167
Charleroi,50.4,4.4333
Aberdeen,57.15,-2.11
Deoghar,24.48,86.7
La Guaira,10.6,-66.9331
Bīrjand,32.8667,59.2167
Chhindwāra,22.057,78.9396
Timayy al Imdīd,30.9438,31.5293
Mazabuka,-15.8467,27.7475
Poza Rica de Hidalgo,20.5333,-97.45
Toruń,53.0222,18.6111
Tanjungpinang,0.9188,104.4554
Kassel,51.3158,9.4979
Haldia,22.0667,88.0698
Luxor,25.6833,32.65
Lạng Sơn,21.8478,106.7578
At Tājī,33.5092,44.2342
Tarakan,3.3,117.6333
Las Tunas,20.9597,-76.9544
Al Khawr,25.69,51.51
Matsue,35.4708,133.0519
Arica,-18.4667,-70.3167
Hà Tĩnh,18.3333,105.9
Cosenza,39.3,16.25
Al Khums,32.6497,14.2644
Huacho,-11.1,-77.6
El Jadid,33.2333,-8.5
Cajamarca,-7.1667,-78.5167
Norwich,41.5495,-72.0882
Ciudad Madero,22.25,-97.8333
Mai’Adua,13.1906,8.2117
Jacobabad,28.2769,68.4514
Almería,36.8403,-2.4681
Tokat,40.3139,36.5542
Sātkhira,22.7188,89.0713
Néma,16.6167,-7.25
Khandwa,21.82,76.35
Pulimaddi,15.48,78.48
Morena,26.5,78.0
Soio,-6.1333,12.3667
Guacara,10.2333,-67.8833
Olympia,47.0417,-122.8959
Kabankalan,9.9833,122.8167
Isidro Casanova,-34.7,-58.5833
Rio Claro,-22.4108,-47.5608
Santa Tecla,13.6731,-89.2406
Isanlu,8.1667,5.8
Az Zāwīyah,32.7522,12.7278
Kasama,-10.2117,31.1783
Maharagama,6.8494,79.9236
Kouribga,32.8833,-6.9167
Amroha,28.9044,78.4675
Lahad Datu,5.03,118.34
Chilpancingo,17.55,-99.5
Drabar,33.43,75.09
Waterbury,41.5582,-73.0361
Liège,50.6397,5.5706
Banja Luka,44.7725,17.1925
Salinas,36.6883,-121.6317
Huntington,38.4109,-82.4345
Alcalá de Henares,40.4818,-3.3643
Taranto,40.4711,17.2431
Khowy,38.5519,44.9536
Uripa,11.9167,-72.0
Kankan,10.3833,-9.3
Huntington Beach,33.696,-118.0018
Clarksville,36.5692,-87.3413
Martapura,-3.45,114.8333
Ciudad del Carmen,18.6333,-91.8333
Bhind,26.5587,78.7871
Chakradharpur,22.7,85.63
Tocuyito,10.0889,-68.0922
Alvorada,-29.9897,-51.0833
Richmond,49.1667,-123.1333
Araçatuba,-21.2089,-50.4328
Santa Barbara,34.4285,-119.7202
Gemena,3.25,19.7667
Oradea,47.0722,21.9211
Desē,11.1333,39.6333
Helong,42.5404,129.0039
Croydon,51.3727,-0.1099
Béni Mellal,32.3394,-6.3608
Madhyamgram,22.7,88.45
Mwene-Ditu,-7.0,23.45
Khammam,17.2473,80.1514
Bhiwāni,28.78,76.13
Higashi-Hiroshima,34.4167,132.7333
N’Zérékoré,7.75,-8.8167
Huánuco,-9.9295,-76.2397
Rzeszów,50.0333,22.0
Eldoret,0.5167,35.2833
Mbanza-Ngungu,-5.25,14.8667
Shrīrāmpur,22.75,88.34
Hino,35.6713,139.3951
Zipaquirá,5.0333,-74.0
Rio Grande,-32.035,-52.0986
Prokopyevsk,53.8833,86.7167
Rajin,42.3444,130.3844
Fuenlabrada,40.2833,-3.8
Ghāndīnagar,23.223,72.65
Brescia,45.5389,10.2203
Kusŏng,39.9667,125.1667
Baharampur,24.1,88.25
Sūhāj,26.55,31.7
Acarigua,9.5597,-69.2019
Hugli,22.9089,88.3967
San Pedro de Macorís,18.45,-69.3
Glendale,34.1819,-118.2468
Mbarara,-0.6133,30.6583
Parma,44.8015,10.328
Sunrise Manor,36.1783,-115.0487
Kenema,7.8758,-11.1908
Brikama,13.2667,-16.65
Suzuka,34.882,136.5842
Kajo Kaji,3.8492,31.6578
Koronadal,6.5,124.85
Cuautla,18.8167,-98.95
Grand Prairie,32.6871,-97.0208
Viranşehir,37.2306,39.7653
Iskandar,41.5581,69.7047
Karaköprü,37.1847,38.7908
Sosnowiec,50.2833,19.1333
Tanauan,14.0833,121.15
Myawadi,16.6878,98.5083
La Serena,-29.9,-71.25
Sodo,6.855,37.7808
Trondheim,63.4297,10.3933
Morbi,22.82,70.83
Ārba Minch’,6.0333,37.55
Prato,43.8808,11.0966
Overland Park,38.887,-94.687
Tchitato,-7.345,20.8198
Malema,-14.9486,37.4144
Anseong,37.0078,127.2797
Yuzhno-Sakhalinsk,46.95,142.7333
Richmond Hill,43.8667,-79.4333
Narsingdi,23.9167,90.7167
Gorontalo,0.5333,123.0667
Guanajuato,21.0178,-101.2567
Hagerstown,39.6401,-77.7217
Peterborough,52.5662,-0.2366
Nampa,43.5844,-116.5638
Quelimane,-17.8764,36.8872
Tébessa,35.4,8.1167
Kumagaya,36.1474,139.3886
San Fernando,7.894,-67.473
Rijeka,45.3272,14.4411
Gastonia,35.2494,-81.1854
Mahbūbnagar,16.7488,78.0035
Karaman,37.1819,33.2181
La Plata,-34.9211,-57.9544
Fatehpur,25.93,80.8
Pāndhurnā,21.6,78.52
Yamaguchi,34.1833,131.4667
Lae,-6.7303,147.0008
Muar,2.05,102.56
Cap-Haïtien,19.76,-72.2
Oakville,43.45,-79.6833
Godoy Cruz,-32.9167,-68.8333
Būkān,36.5172,46.2114
Muş,38.7333,41.4911
Hyesan,41.4,128.1833
Kielce,50.8742,20.6333
Frisco,33.156,-96.8216
Kırıkkale,39.8417,33.5139
Jalapa,14.6379,-89.9904
Rājendranagar,17.3198,78.4031
Castanhal,-1.2969,-47.9219
Guanare,9.0436,-69.7489
Cedar Rapids,41.9662,-91.6783
Basildon,51.58,0.49
Fernando de la Mora,-25.32,-57.54
Leganés,40.3281,-3.7644
Pābna,24.0167,89.2167
Rāe Bareli,26.2236,81.2403
Florencia,1.6139,-75.6128
General Mariano Alvarez,14.3,121.0
Fianarantsoa,-21.4536,47.0858
San Cristóbal,16.737,-92.6376
Bago,10.5388,122.8384
Valera,9.3206,-70.6078
Bournemouth,50.72,-1.88
Pasuruan,-7.6406,112.9065
Armavir,45.0,41.1167
Balakovo,52.0333,47.7833
Jhelum,32.9425,73.7256
Donostia,43.32,-1.98
Hemet,33.7341,-116.9969
Aydın,37.8481,27.8453
Batu,-7.872,112.525
Orai,25.98,79.47
Manzanillo,19.0522,-104.3158
Anjōmachi,34.9587,137.0803
Lam Tin,22.3094,114.2361
Malaybalay,8.1564,125.1333
Ferraz de Vasconcelos,-23.5411,-46.3689
Santa Bárbara d’Oeste,-22.7544,-47.4142
Chibia,-15.1833,13.7
Odawara,35.25,139.15
Kishiwada,34.4667,135.3667
Saddiqabad,28.3006,70.1302
Shahr-e Kord,32.3311,50.8594
Rybinsk,58.05,38.8333
Abū Ghurayb,33.2919,44.0656
Chŏngju,39.65,125.3333
Cachoeiro de Itapemirim,-20.8489,-41.1128
Hagen,51.3667,7.4833
Paradise,36.0872,-115.1355
Ngaoundéré,7.3167,13.5833
Pak Kret,13.9125,100.4978
Donghua,35.2175,106.6545
Braga,41.5503,-8.42
Sioux Falls,43.5396,-96.7311
Las Heras,-32.85,-68.8167
Araure,9.5667,-69.2167
Digos,6.75,125.35
Pinar del Río,22.4122,-83.6719
El Progreso,15.4,-87.8
Numazu,35.0956,138.8634
Rāiganj,25.62,88.12
Tachikawa,35.6942,139.4197
Prabumulih,-3.4328,104.2356
Angra dos Reis,-23.0067,-44.3181
Bhusāval,21.05,75.77
San Francisco de Macorís,19.3,-70.25
Vancouver,45.6366,-122.5967
Sobral,-3.6739,-40.2389
Al Ḩasakah,36.5117,40.7422
Klerksdorp,-26.8667,26.6667
Kecskemét,46.9061,19.6897
Guatire,10.4717,-66.5406
Iquique,-20.2167,-70.15
El Bosque,-33.5667,-70.675
Kōfu,35.6621,138.5682
San Diego,10.2558,-67.9539
Gharyān,32.1697,13.0167
Thingangyun,16.8281,96.1842
Peoria,33.7843,-112.2989
Bārākpur,22.7642,88.3776
Padalarang,-6.8435,107.4779
Tottori,35.5,134.2333
Chaedŏk,40.7988,129.3602
Jōetsu,37.1479,138.2361
Bahraigh,27.575,81.594
Ucu Seles,-11.4047,14.3006
Calbayog City,12.0667,124.6
Waco,31.5599,-97.1882
Kairouan,35.6772,10.1008
Tambaram,12.831,80.0459
Cabo Frio,-22.8789,-42.0189
Shendi,16.6833,33.4333
Lorain,41.4409,-82.184
Erie,42.1167,-80.0733
Shibīn al Kawm,30.5586,31.01
Ed Damazin,11.7667,34.35
Umreth,22.6986,73.1156
Reims,49.2628,4.0347
Dunhuang,40.1411,94.6639
Mahesāna,23.6,72.4
Nossa Senhora do Socorro,-10.855,-37.0592
Breda,51.5889,4.7758
Getafe,40.3047,-3.7311
Modena,44.6458,10.9257
Guri,37.6,127.15
Jamaame,0.0667,42.75
Basel,47.5547,7.5906
Tân Châu,10.7739,105.2369
Dinapore,25.6225,85.0417
Semnān,35.5728,53.3972
Temirtaū,50.05,72.95
Toyokawa,34.8268,137.3759
Newport News,37.1051,-76.5185
Yei,4.0904,30.68
Alasandigutta,15.63,77.28
Luzhang,25.8519,98.8562
Al Qāmishlī,37.05,41.22
Fardīs,35.7167,50.9833
Chūō-ku,35.6706,139.772
Geelong,-38.15,144.35
Vĩnh Châu,9.333,106.0
Siguiri,11.4189,-9.1644
Severodvinsk,64.5667,39.8667
Batāla,31.8186,75.2028
Potsdam,52.4,13.0667
Kottayam,9.5947,76.4856
Itajaí,-26.9,-48.6667
Trảng Bàng,11.033,106.367
Cuango,-9.1444,18.0464
Aqtaū,43.6525,51.1575
Ongata Rongai,-1.4,36.77
Niš,43.3192,21.8961
Cuauhtémoc,28.405,-106.8667
Aurora,41.7638,-88.2902
Narashino,35.6804,140.0265
Abakan,53.7167,91.4667
Burlington,43.3167,-79.8
Cuautitlán,19.6833,-99.1833
Odense,55.3958,10.3886
La Pintana,-33.5833,-70.6333
Pinrang,-3.7857,119.6522
Isiro,2.7833,27.6167
Toulon,43.1258,5.9306
Sorsogon,12.9742,124.0058
Lagos de Moreno,21.3567,-101.9378
Sirsa,29.5333,75.0167
Dourados,-22.2208,-54.8058
Amadora,38.7333,-9.2333
Kāraikkudi,10.0735,78.7732
Brăila,45.2692,27.9575
Uji,34.8844,135.7997
Nova Friburgo,-22.2819,-42.5311
Fort Lauderdale,26.1412,-80.1464
Reggio di Calabria,38.1144,15.65
Berazategui,-34.7167,-58.25
Phan Rang-Tháp Chàm,11.5667,108.9833
Vallejo,38.1125,-122.2342
Dosquebradas,4.8333,-75.6833
Thanhlyin,16.7333,96.25
York,53.9601,-1.078
Petropavlovsk-Kamchatskiy,53.0167,158.65
Himatnagar,23.6,72.95
Alleppey,9.49,76.33
Epe,6.5573,3.9912
Sittwe,20.167,92.785
Dam Dam,22.62,88.42
Jaunpur,25.73,82.68
Murfreesboro,35.849,-86.4121
Jīma,7.6667,36.8333
Sucúa,-2.46,-78.17
Kindia,10.0497,-12.8542
Curug,-6.3711,106.8
Guna,24.65,77.32
Lhokseumawe,5.1881,97.1403
Roxas City,11.5894,122.7511
Funtua,11.5204,7.32
Boma,-5.85,13.05
Turbo,8.1,-76.7333
Hinthada,17.6461,95.4603
Çanakkale,40.1519,26.4056
La Rioja,-29.4125,-66.8542
Madanapalle,13.55,78.5
Palopo,-3.0,120.2
Njeru,0.4311,33.1478
Obuase,6.2,-1.6833
Nijmegen,51.8475,5.8625
Saarbrücken,49.2333,7.0
San Luis Río Colorado,32.4767,-114.7625
Edirne,41.6769,26.5556
Tiaret,35.3667,1.3167
Mahād,18.083,73.417
Purwakarta,-6.5533,107.4472
Longjing,42.77,129.4197
Split,43.51,16.44
Ilhéus,-14.7889,-39.0489
Hosa’ina,7.55,37.85
Barra Mansa,-22.5439,-44.1708
Shivpuri,25.43,77.65
Bhālswa Jahangirpur,28.7354,77.1638
Hamm,51.6833,7.8167
Tongjiang,47.6502,132.503
Almada,38.6803,-9.1583
Norilsk,69.3333,88.2167
Spring Hill,28.4798,-82.53
Mongu,-15.2775,23.1319
Al ‘Arīsh,31.1249,33.8006
Divo,5.8333,-5.3667
Urayasu,35.6539,139.9022
Bida,9.0804,6.01
Bade,24.9575,121.2989
Paita,-5.0911,-81.1064
Torbalı,38.1619,27.3583
Townsville,-19.25,146.8167
Langsa,4.48,97.9633
Dagupan City,16.043,120.334
Teziutlan,19.8178,-97.3667
Tempe,33.3881,-111.9319
High Point,35.991,-79.9937
Sultānpur Mazra,28.6981,77.0689
Unnāo,26.55,80.49
Şalālah,17.0197,54.0897
Medford,42.3372,-122.854
Salatiga,-7.3247,110.5444
Matosinhos,41.1833,-8.7
Hamilton,-37.7833,175.2833
Lin’an,23.6236,102.8097
Chicoloapan,19.4167,-98.9
Kandi,11.1286,2.9369
Danbury,41.4015,-73.4709
Meiktila,20.8833,95.8833
Dundo,-7.3801,20.8351
Bejaïa,36.7511,5.0642
Titāgarh,22.74,88.37
Loum,4.718,9.73
Baranavichy,53.1333,26.0167
Santa María Texmelucan,19.2833,-98.4333
Kamakurayama,35.3197,139.5525
Yangmei,24.9167,121.15
Ilford,51.5575,0.0858
Les Cayes,18.2,-73.75
Ciudad Valles,21.9833,-99.0167
Santander,43.4628,-3.805
Kadugli,11.0167,29.7167
Linhares,-19.3894,-40.0678
Letpandan,17.7866,95.7507
Krasnogorsk,55.8217,37.3386
Wārāseonī,21.7647,80.0494
Mauli,30.699,76.693
Saint-Louis,16.0333,-16.5
Rio Verde,-17.745,-50.9167
Plzeň,49.7475,13.3775
Biu,10.6111,12.195
Ait Melloul,30.3342,-9.4972
Comitán,16.2511,-92.1342
Saint-Étienne,45.4347,4.3903
Orekhovo-Borisovo Yuzhnoye,55.6031,37.7331
Oeiras,38.6833,-9.3167
Habaswein,1.01,39.49
Catumbela,-12.4167,13.5333
Santa Cruz,14.5998,120.9802
Ereğli,41.2792,31.4208
Sầm Sơn,19.7333,105.9
Harar,9.3111,42.1278
Shibirghān,36.665,65.752
Burgos,42.3408,-3.6997
Chandannagar,22.8671,88.3674
Cuddalore,11.75,79.75
Olsztyn,53.7778,20.4792
Elk Grove,38.4161,-121.3842
Kotdwāra,29.75,78.53
Marāgheh,37.3906,46.2403
Thành Phố Uông Bí,21.0356,106.7644
Gliwice,50.2833,18.6667
Bodrum,37.0378,27.4242
Tebingtinggi,3.3283,99.1625
Cianjur,-6.82,107.1408
Alcorcón,40.35,-3.8333
Ontario,34.0393,-117.6064
Chetumal,18.5036,-88.3053
Khānaqīn,34.3333,45.3833
Frederick,39.4337,-77.4141
Sīrjān,29.437,55.6802
Tyre,33.2708,35.1961
Mexico,15.0667,120.7167
Menemen,38.6,27.0667
Ludwigshafen,49.4811,8.4353
Vero Beach South,27.6132,-80.4163
Syzran,53.1667,48.4667
Carúpano,10.6722,-63.2403
Ocala,29.178,-82.1511
Lubao,14.9333,120.6
Luziânia,-16.2528,-47.95
Oceanside,33.2247,-117.3083
Chīrāla,15.8246,80.3521
Ratnapura,6.6806,80.4022
León,12.4344,-86.8775
San Andrés Tuxtla,18.4487,-95.2126
Tiantoujiao,23.0236,114.0927
Castellón de la Plana,39.9831,-0.0331
Piedras Negras,28.7,-100.5231
Banhā,30.4667,31.1833
Linjiang,41.8471,126.9301
Rancho Cucamonga,34.1247,-117.5667
Hạ Long,20.95,107.0667
Deo,24.6561,84.4356
Silchar,24.82,92.8
Tlemcen,34.8828,-1.3167
Hitachi,36.5991,140.6515
Kindu,-2.95,25.95
Shāhīn Shahr,32.8667,51.5667
Le Havre,49.49,0.1
Gadag,15.4167,75.6167
Akhisar,38.9167,27.8333
Polomolok,6.2167,125.0667
Mang La,14.3833,107.9833
Sirājganj,24.45,89.75
Tiruvannāmalai,12.13,79.07
Rantau Prapat,2.3333,100.05
Banyuwangi,-8.2186,114.3669
Albacete,38.9956,-1.8558
Bīdar,17.912,77.52
San Miguel,15.1458,120.9783
Mülheim,51.4275,6.8825
Sacaba,-17.4042,-66.0408
Garden Grove,33.7787,-117.9601
Reggio Emilia,44.7,10.6333
Barrie,44.3711,-79.6769
Kaolack,14.1389,-16.0764
Moca,19.3833,-70.5167
São Caetano do Sul,-23.7,-46.55
Cape Coast,5.1,-1.25
Izumo,35.3667,132.7667
Baliuag,14.954,120.901
Oldenburg,53.1439,8.2139
Sawangan,-6.4086,106.7647
Petite Rivière de l’Artibonite,19.1333,-72.4833
Niiza,35.7935,139.5653
Cazanga,-9.3,14.95
Surigao,9.7897,125.4958
Batumi,41.6458,41.6417
Francisco Morato,-23.2817,-46.7425
Cary,35.7819,-78.8195
Volgodonsk,47.5167,42.15
Bảo Lộc,11.5481,107.8075
Ramat Gan,32.07,34.8236
Petarukan,-6.8961,109.4514
Kohat,33.5833,71.4333
Makurdi,7.7306,8.5361
Kamensk-Ural’skiy,56.4,61.9333
Loja,-3.9833,-79.2
Valsād,20.61,72.926
Escuintla,14.2978,-90.7869
Ussuriysk,43.8,131.9667
Sakura,35.7167,140.2167
Concepcion,15.3249,120.6554
Machilīpatnam,16.17,81.13
Uppsala,59.8581,17.6447
Tomakomai,42.6341,141.6055
Portmore,17.95,-76.8799
Bordj Bou Arreridj,36.0667,4.7667
Aplahoué,6.9333,1.6833
Pembroke Pines,26.0128,-80.3382
Malāyer,34.2969,48.8236
Kluang,2.0336,103.3194
As Suwayq,23.8494,57.4386
Novocherkassk,47.4222,40.0939
Métouia,33.9667,10.0
Magwe,4.1333,32.3
Nishio,34.8333,137.0667
Bayamón,18.3794,-66.1635
San Luis,-33.3,-66.3333
Puerto Montt,-41.4667,-72.9333
Medinīpur,22.424,87.319
Fenglu,24.6728,102.9149
Saḩāb,31.8667,36.0
Al Marj,32.5005,20.83
Caluquembe,-13.9208,14.5347
Sŏsan,36.7817,126.4522
Damoh,23.8331,79.4419
Toliara,-23.35,43.6667
Warrington,53.39,-2.59
Gondomar,41.15,-8.5333
Minbya,20.3667,93.2667
Jamālpur,24.9004,89.95
Santa Rita,10.2003,-67.5514
Neyveli,11.6088,79.4994
Bāramūla,34.2,74.34
Kalalé,10.2953,3.3786
Oyama,36.3146,139.8002
Wāpi,20.372,72.917
Ambato,-1.2417,-78.6197
Calabozo,8.9219,-67.4283
Hŭich’ŏn,40.1707,126.2761
Mahābād,36.7678,45.7339
Itapecerica da Serra,-23.7172,-46.8494
Villa Canales,14.4816,-90.534
Basuo,19.092,108.671
Zlatoust,55.1667,59.6667
Malanville,11.8667,3.3833
Jīnd,29.3167,76.3167
Palmdale,34.5944,-118.1057
Haarlem,52.3833,4.6333
Pátra,38.25,21.7333
Ríohacha,11.5442,-72.9069
Catape,-13.7667,15.0833
Talas,38.6833,35.5667
Katha,24.1822,96.3306
Manchester,42.9848,-71.4447
Tuguegarao,17.6133,121.7303
Guarapuava,-25.3833,-51.45
Itu,-23.2642,-47.2992
Jutiapa,14.2917,-89.8958
Çerkezköy,41.2833,28.0
Mogok,22.9167,96.5
Mukono,0.3533,32.7553
Al Kūfah,32.03,44.4
Ādoni,15.6244,77.2731
Grenoble,45.1715,5.7224
Tabora,-5.0167,32.8
Sampit,-2.5333,112.95
Lafayette,40.3991,-86.8593
Tenāli,16.239,80.645
Iwata,34.7179,137.8515
Takaoka,36.7541,137.0257
Tam Kỳ,15.5667,108.4833
Skikda,36.8667,6.9
Siirt,37.925,41.9458
Osnabrück,52.2833,8.05
Kuytun,44.4264,84.9032
Ipiales,0.8303,-77.6444
Fyzābād,26.773,82.146
Körfez,40.7833,29.7333
Perugia,43.1122,12.3889
Udipi,13.3389,74.7451
Oshawa,43.9,-78.85
Tanjungbalai,2.97,99.8
Obihiro,42.9167,143.2
Santa Cruz,36.9789,-122.0346
Leverkusen,51.0333,6.9833
Klaipėda,55.75,21.1667
Hadano,35.3667,139.2167
Kushiro,42.9833,144.3833
Midsayap,7.1917,124.5333
Idlib,35.9333,36.6333
Arnhem,51.9833,5.9167
Kingswood,51.46,-2.505
Béchar,31.6333,-2.2
Conjeeveram,12.8308,79.7078
Kandy,7.2964,80.635
Proddatūr,14.73,78.55
Cienfuegos,22.1456,-80.4364
Nador,35.1667,-2.9333
Saqqez,36.2464,46.2664
Zhanlicun,23.2881,116.2594
Ebo,-11.0,14.6667
Kökshetaū,53.2833,69.3833
Nāngloi Jāt,28.6833,77.0667
Fukang,44.1646,87.9536
Türkistan,43.3019,68.2692
Pikit,7.05,124.6667
Huddersfield,53.645,-1.7798
Bocoio,-12.4667,14.1333
Chillán,-36.6067,-72.1033
Marysville,48.0809,-122.1561
Abengourou,6.7333,-3.4833
Abū Ḩulayfah,29.1322,48.1261
Muridke,31.802,74.255
Tema,5.6667,-0.0167
Metro,-5.1167,105.3
Muskegon,43.2281,-86.2562
Ipswich,-27.6167,152.7667
Myingyan,21.46,95.3883
Quibala,-10.7333,14.9833
Teresópolis,-22.4119,-42.9658
Ciudad Acuña,29.3242,-100.9317
Tunja,5.5333,-73.3667
‘Unayzah,26.0906,43.9875
San Marcos,10.6204,-84.512
Turgutlu,38.5,27.7
Pocheon,37.8947,127.2002
Ninh Bình,20.2539,105.975
São José de Ribamar,-2.55,-44.05
Wau,7.7,28.0
Ube,33.95,131.25
Gölcük,40.6667,29.8333
Muzaffargarh,30.0694,71.1942
Kebili,33.705,8.965
Jizzax,40.1158,67.8422
Kyaunggon,17.1,95.1833
Simao,22.7807,100.9782
San Martin Texmelucan de Labastida,19.2833,-98.4333
Brahmanpara,23.6167,91.1083
Naic,14.3167,120.7667
Jinggang,23.2723,113.2182
Bandar-e Māhshahr,30.5589,49.1981
Godhra,22.7772,73.6203
